~VERSION INFORMATION
 VERS.                 2.0:   CWLS LOG ASCII STANDARD - VERSION 2.0
 WRAP.                  NO:   SINGLE LINE PER DEPTH STEP
 CREA.                 02/27/2023 11:24:21
#CREATED USING DSPetro VERSION 10ep.5.0.03 BY H225751 ON 02/27/2023 11:24:21
~WELL INFORMATION
#MNEM.UNIT       DATA                          DESCRIPTION MNEMONIC
#---------      ---------------------------   --------------------------
 STRT    .FT        8900.0000                 : START DEPTH
 STOP    .FT        10200.0000                : STOP DEPTH
 STEP    .FT        0.5000                    : STEP VALUE
 NULL    .      -999.0000                     : NULL VALUE
 DATE    .      02/27/2023                    : LAS file Creation Date
 WELL   .      LGA-021                        : Well Name
 COMP   .      PETROPRODUCCION                : Company
 FLD    .      LAGO AGRIO                     : Field
 STATE  .      SUCUMBIOS                      : State
 COUNT  .      ECUADOR                        : Country
 UWI    .      LGA-021                        : Unique Well Identifier (UWI)
 LOC    .      TWP        - Range       - Sec : Location
 PDAT   .      GR                             : Permanent Datum
 LGMEA  .      KB                             : Log Measured from
 DRMEA  .      KB                             : Drill Measured From
 KB     .      986                            : KB Elevation
 DF     .      -999.2500                      : DF Elevation
 GL     .      -999.2500                      : GL Elevation
 RWS    .      0                              : Def_Rw
 WST    .      0                              : Def_Rwt
 UTMZ   .      31                             : UTM Zone
 CNTY   .      LA                             : County
 PROV   .      SUCUMBIOS                      : Province
 MDEC   .      0                              : Magnetic Declination
 SRVC   .      SCH                            : Contractor
 GDAT   .      WGS 84                         : Geodatum
 LONG   .      0                              : Longitude
 LATI   .      0                              : Latitude
 COORDIN.                                     : Grid System
 XCOORD .                                     : X or East-West Coordinate
 YCOORD .                                     : Y or North-South Coordinate
~CURVE INFORMATION
#MNEM              UNIT       API CODE   Curve Type Comments
#----------  --------------- ----------  ---------- -----------
 DEPTH      .FT                        : Depth       
 CALI       .inches                    : Caliper     Caliper
 ILD        .ohm.m                     :             
 KTR        .                          :             Multi-Line Formulae Output Curve
 PayFlag    .                          : PayFlag     
 PHIE       .Dec                       : Phi         
 ResFlag    .                          : ResFlag     
 SW         .Dec                       : Sw          
 TR1        .                          :             Multi-Line Formulae Output Curve
 VCLGR      .Dec                       : Vcl         
 PHIT       .Dec                       : PhiT        
 GR         .API                       : GammaRay    GRn = 1.30334 x GR + -6.4442
 BS         .inch                      : BitSize     Multi-Line Formulae Output Curve
 DTMA       .uSec/ft                   : DTMatx      
 DT         .us/ft                     : Sonic       Sonic Travel Time
 SP         .mV                        : SP          
~A  DEPTH    CALI      ILD       KTR     PayFlag     PHIE    ResFlag      SW       TR1      VCLGR      PHIT       GR        BS       DTMA       DT        SP    
# ...
9825.0000    8.0860  500.0000    0.1000    0.0000    0.0001    0.0000    1.0000    4.0000    0.4838    0.0727   87.2529    8.5000   55.5000   68.6200   27.7727 
9825.5000    7.8690  500.0000    0.1000    0.0000    0.0001    0.0000    1.0000    4.0000    0.5144    0.0773   91.5018    8.5000   55.5000   73.4300   27.7034 
9826.0000    8.0880  500.0000    0.1000    0.0000    0.0001    0.0000    1.0000    4.0000    0.6267    0.0941  107.1158    8.5000   55.5000   77.4800   27.7530 
9826.5000    8.2020  500.0000    0.1000    0.0000    0.0001    0.0000    1.0000    4.0000    0.7714    0.1158  127.2263    8.5000   55.5000   73.8100   28.0217 
9827.0000    8.3080  500.0000    0.1000    0.0000    0.0001    0.0000    1.0000    4.0000    0.8336    0.1251  135.8675    8.5000   55.5000   72.6900   28.4113 
9827.5000    8.4020  500.0000    0.1000    0.0000    0.0001    0.0000    1.0000    4.0000    0.8574    0.1287  139.1780    8.5000   55.5000   74.4700   28.6789 
9828.0000    8.4220  500.0000    0.1000    0.0000    0.0001    0.0000    1.0000    4.0000    0.8621    0.1294  139.8297    8.5000   55.5000   70.4200   29.1296 
9828.5000    8.3990  500.0000    0.1000    0.0000    0.0001    0.0000    1.0000    4.0000    0.8791    0.1320  142.1887    8.5000   55.5000   76.4900   29.6852 
9829.0000    8.3920  500.0000    0.1000    0.0000    0.0001    0.0000    1.0000    4.0000    0.9104    0.1367  146.5418    8.5000   55.5000   76.3700   30.5449 
9829.5000    8.3910  500.0000    0.1000    0.0000    0.0001    0.0000    1.0000    4.0000    0.9318    0.1399  149.5265    8.5000   55.5000   72.9600   31.7825 
9830.0000    8.4020  500.0000    0.1000    0.0000    0.0001    0.0000    1.0000    4.0000    0.9285    0.1394  149.0573    8.5000   55.5000   72.5600   33.0101 
9830.5000    8.4000  500.0000    0.1000    0.0000    0.0001    0.0000    1.0000    4.0000    0.9349    0.1403  149.9566    8.5000   55.5000   76.6100   34.1538 
9831.0000    8.3710  500.0000    0.1000    0.0000    0.0001    0.0000    1.0000    4.0000    0.9814    0.1473  156.4212    8.5000   55.5000   78.7000   35.2874 
9831.5000    8.3560  500.0000    0.1000    0.0000    0.0001    0.0000    1.0000    4.0000    1.0201    0.1501  161.7909    8.5000   55.5000   76.6300   36.0510 
9832.0000    8.3510  500.0000    0.1000    0.0000    0.0001    0.0000    1.0000    4.0000    1.0183    0.1501  161.5433    8.5000   55.5000   73.7700   36.8047 
9832.5000    8.3800  500.0000    0.1000    0.0000    0.0001    0.0000    1.0000    4.0000    0.9711    0.1458  154.9875    8.5000   55.5000   75.4800   37.5783 
9833.0000    8.4190  500.0000    0.1000    0.0000    0.0001    0.0000    1.0000    4.0000    0.9349    0.1403  149.9566    8.5000   55.5000   73.9600   38.1520 
9833.5000    8.4730  500.0000    0.1000    0.0000    0.0001    0.0000    1.0000    4.0000    0.9584    0.1439  153.2150    8.5000   55.5000   77.1300   38.9856 
9834.0000    8.4770  500.0000    0.1000    0.0000    0.0001    0.0000    1.0000    4.0000    1.0051    0.1501  159.7056    8.5000   55.5000   80.5900   40.0192 
9834.5000    8.3970  500.0000    0.1000    0.0000    0.0001    0.0000    1.0000    4.0000    1.0419    0.1501  164.8277    8.5000   55.5000   74.6000   41.0429 
9835.0000    8.4690  500.0000    0.1000    0.0000    0.0001    0.0000    1.0000    4.0000    1.0779    0.1501  169.8325    8.5000   55.5000   75.2500   41.7165 
9835.5000    8.4890  500.0000    0.1000    0.0000    0.0001    0.0000    1.0000    4.0000    1.1196    0.1501  175.6194    8.5000   55.5000   76.6600   42.1002 
9836.0000    8.4840  500.0000    0.1000    0.0000    0.0001    0.0000    1.0000    4.0000    1.1845    0.1501  184.6515    8.5000   55.5000   81.2000   42.6738 
9836.5000    8.5060  500.0000    0.1000    0.0000    0.0001    0.0000    1.0000    4.0000    1.2603    0.1501  195.1825    8.5000   55.5000   85.4300   43.1174 
9837.0000    8.5470  500.0000    0.1000    0.0000    0.0001    0.0000    1.0000    4.0000    1.3323    0.1501  205.1922    8.5000   55.5000   82.2900   43.4811 
9837.5000    8.5820  500.0000    0.1000    0.0000    0.0001    0.0000    1.0000    4.0000    1.3537    0.1501  208.1638    8.5000   55.5000   78.8800   44.1147 
9838.0000    8.5940  500.0000    0.1000    0.0000    0.0001    0.0000    1.0000    4.0000    1.1716    0.1501  182.8529    8.5000   55.5000   75.3600   45.0683 
9838.5000    8.5850  500.0000    0.1000    0.0000    0.0001    0.0000    1.0000    4.0000    1.0019    0.1501  159.2624    8.5000   55.5000   73.7700   45.7720 
9839.0000    8.5800  500.0000    0.1000    0.0000    0.0001    0.0000    1.0000    4.0000    0.9468    0.1421  151.6118    8.5000   55.5000   76.0000   46.3356 
9839.5000    8.5790  500.0000    0.1000    0.0000    0.0001    0.0000    1.0000    4.0000    0.9799    0.1471  156.2126    8.5000   55.5000   75.8800   46.3793 
9840.0000    8.5930  500.0000    0.1000    0.0000    0.0001    0.0000    1.0000    4.0000    0.9437    0.1416  165.3230    8.5000   55.5000   74.6300   46.2129 
9840.5000    8.5770  500.0000    0.1000    0.0000    0.0001    0.0000    1.0000    4.0000    0.9547    0.1433  167.0304    8.5000   55.5000   75.9477   45.9065 
9841.0000    8.6140  500.0000    0.1000    0.0000    0.0001    0.0000    1.0000    4.0000    0.9154    0.1374  160.9698    8.5000   55.5000   75.2941   45.4102 
9841.5000    8.7100  500.0000    0.1000    0.0000    0.0001    0.0000    1.0000    4.0000    0.8377    0.1258  149.0052    8.5000   55.5000   74.6405   44.6338 
9842.0000    9.7550  500.0000    0.1000    0.0000    0.0001    0.0000    1.0000    4.0000    0.7506    0.1127  135.5938    8.5000   40.0000   73.9869   43.8875 
9842.5000   11.1660  500.0000    0.1000    0.0000    0.0001    0.0000    1.0000    4.0000    0.6592    0.0990  121.5177    8.5000   40.0000   58.7500   42.4411 
9843.0000   10.7110  500.0000    0.1000    0.0000    0.0001    0.0000    1.0000    4.0000    0.6000    0.0901  112.3943    8.5000   40.0000   57.3300   40.5347 
9843.5000   10.4590  500.0000    0.1000    0.0000    0.0001    0.0000    1.0000    4.0000    0.5395    0.0810  103.0885    8.5000   40.0000   58.3900   39.2784 
9844.0000   10.5690  500.0000    0.1000    0.0000    0.0001    0.0000    1.0000    4.0000    0.5262    0.0790  101.0423    8.5000   40.0000   59.8400   37.7020 
9844.5000    9.5270  500.0000    0.1000    0.0000    0.0001    0.0000    1.0000    4.0000    0.5150    0.0773   99.3088    8.5000   40.0000   59.3600   34.8956 
9845.0000    8.7840  500.0000    0.1000    0.0000    0.0001    0.0000    1.0000    4.0000    0.4852    0.0729   94.7211    8.5000   40.0000   59.8000   33.0293 
9845.5000    8.5750  500.0000    0.1000    0.0000    0.0001    0.0000    1.0000    4.0000    0.4686    0.0704   92.1665    8.5000   40.0000   60.8700   30.4629 
9846.0000    8.5660  500.0000    0.1000    0.0000    0.0001    0.0000    1.0000    4.0000    0.4556    0.0684   90.1594    8.5000   40.0000   59.1700   25.7666 
9846.5000    8.5810  500.0000    0.1000    0.0000    0.0001    0.0000    1.0000    4.0000    0.4392    0.0660   87.6309    8.5000   40.0000   58.5000   23.6302 
9847.0000    8.5890  500.0000    0.1000    0.0000    0.0001    0.0000    1.0000    4.0000    0.4270    0.0641   85.7541    8.5000   40.0000   59.2800   21.1438 
9847.5000    8.6000  500.0000    0.1000    0.0000    0.0001    0.0000    1.0000    4.0000    0.4088    0.0614   82.9519    8.5000   40.0000   60.5100   17.7975 
9848.0000    8.6050  500.0000    0.1000    0.0000    0.0001    0.0000    1.0000    4.0000    0.4467    0.0671   88.7909    8.5000   40.0000   59.9000   14.3711 
9848.5000    8.6040   99.4711    0.1000    0.0000    0.0001    0.0000    1.0000    4.0000    0.4632    0.0696   91.3324    8.5000   40.0000   63.3300   11.8948 
9849.0000    8.6030   26.6109    6.0430    0.0000    0.0724    0.0000    0.2734    4.0000    0.4707    0.1430   92.4923    8.5000   40.0000   70.6300    9.7384 
9849.5000    8.6060   19.9832   72.4900    0.0000    0.1169    0.0000    0.2358    2.0000    0.4991    0.1917   96.8585    8.5000   40.0000   78.8000    7.1720 
