~VERSION INFORMATION
 VERS.                 2.0:   CWLS LOG ASCII STANDARD - VERSION 2.0
 WRAP.                  NO:   SINGLE LINE PER DEPTH STEP
 CREA.                 02/27/2023 11:24:21
#CREATED USING DSPetro VERSION 10ep.5.0.03 BY H225751 ON 02/27/2023 11:24:21
~WELL INFORMATION
#MNEM.UNIT       DATA                          DESCRIPTION MNEMONIC
#---------      ---------------------------   --------------------------
 STRT    .FT        8900.0000                 : START DEPTH
 STOP    .FT        10200.0000                : STOP DEPTH
 STEP    .FT        0.5000                    : STEP VALUE
 NULL    .      -999.0000                     : NULL VALUE
 DATE    .      02/27/2023                    : LAS file Creation Date
 WELL   .      LGA-021                        : Well Name
 COMP   .      PETROPRODUCCION                : Company
 FLD    .      LAGO AGRIO                     : Field
 STATE  .      SUCUMBIOS                      : State
 COUNT  .      ECUADOR                        : Country
 UWI    .      LGA-021                        : Unique Well Identifier (UWI)
 LOC    .      TWP        - Range       - Sec : Location
 PDAT   .      GR                             : Permanent Datum
 LGMEA  .      KB                             : Log Measured from
 DRMEA  .      KB                             : Drill Measured From
 KB     .      986                            : KB Elevation
 DF     .      -999.2500                      : DF Elevation
 GL     .      -999.2500                      : GL Elevation
 RWS    .      0                              : Def_Rw
 WST    .      0                              : Def_Rwt
 UTMZ   .      31                             : UTM Zone
 CNTY   .      LA                             : County
 PROV   .      SUCUMBIOS                      : Province
 MDEC   .      0                              : Magnetic Declination
 SRVC   .      SCH                            : Contractor
 GDAT   .      WGS 84                         : Geodatum
 LONG   .      0                              : Longitude
 LATI   .      0                              : Latitude
 COORDIN.                                     : Grid System
 XCOORD .                                     : X or East-West Coordinate
 YCOORD .                                     : Y or North-South Coordinate
~CURVE INFORMATION
#MNEM              UNIT       API CODE   Curve Type Comments
#----------  --------------- ----------  ---------- -----------
 DEPTH      .FT                        : Depth       
 CALI       .inches                    : Caliper     Caliper
 ILD        .ohm.m                     :             
 KTR        .                          :             Multi-Line Formulae Output Curve
 PayFlag    .                          : PayFlag     
 PHIE       .Dec                       : Phi         
 ResFlag    .                          : ResFlag     
 SW         .Dec                       : Sw          
 TR1        .                          :             Multi-Line Formulae Output Curve
 VCLGR      .Dec                       : Vcl         
 PHIT       .Dec                       : PhiT        
 GR         .API                       : GammaRay    GRn = 1.30334 x GR + -6.4442
 BS         .inch                      : BitSize     Multi-Line Formulae Output Curve
 DTMA       .uSec/ft                   : DTMatx      
 DT         .us/ft                     : Sonic       Sonic Travel Time
 SP         .mV                        : SP          
~A  DEPTH    CALI      ILD       KTR     PayFlag     PHIE    ResFlag      SW       TR1      VCLGR      PHIT       GR        BS       DTMA       DT        SP    
# ...
9225.0000    8.8290    3.5392    0.1000    0.0000    0.0001    0.0000    1.0000    4.0000    0.9911    0.1488  115.1183    8.5000   55.5000   78.7100   -1.7867 
9225.5000    8.8590    3.4899    0.1000    0.0000    0.0001    0.0000    1.0000    4.0000    0.9871    0.1482  114.7273    8.5000   55.5000   79.4000   -2.0659 
9226.0000    8.8160    3.4169    0.1000    0.0000    0.0001    0.0000    1.0000    4.0000    0.9798    0.1471  113.9975    8.5000   55.5000   79.5500   -2.4952 
9226.5000    8.7120    3.3330    0.1000    0.0000    0.0001    0.0000    1.0000    4.0000    0.9624    0.1445  112.2770    8.5000   55.5000   79.8000   -2.6135 
9227.0000    8.7050    3.2427    0.1000    0.0000    0.0001    0.0000    1.0000    4.0000    0.9595    0.1440  111.9903    8.5000   55.5000   80.6300   -2.1328 
9227.5000    8.7530    3.1570    0.1000    0.0000    0.0001    0.0000    1.0000    4.0000    0.9616    0.1443  112.1988    8.5000   55.5000   80.1100   -1.5420 
9228.0000    8.7350    3.0502    0.1000    0.0000    0.0001    0.0000    1.0000    4.0000    0.9478    0.1423  110.8303    8.5000   55.5000   79.8800   -1.5583 
9228.5000    8.7320    2.9672    0.1000    0.0000    0.0001    0.0000    1.0000    4.0000    0.9192    0.1380  108.0021    8.5000   55.5000   80.1500   -1.9176 
9229.0000    8.7490    2.9404    0.1000    0.0000    0.0001    0.0000    1.0000    4.0000    0.8775    0.1317  103.8705    8.5000   55.5000   79.5700   -1.9558 
9229.5000    8.7610    2.9380    0.1000    0.0000    0.0001    0.0000    1.0000    4.0000    0.8322    0.1249   99.3870    8.5000   55.5000   80.1600   -2.0631 
9230.0000    8.7380    2.9554    0.1000    0.0000    0.0001    0.0000    1.0000    4.0000    0.8027    0.1205   96.4675    8.5000   55.5000   79.7700   -2.5864 
9230.5000    8.7600    2.9763    0.1000    0.0000    0.0001    0.0000    1.0000    4.0000    0.8103    0.1217   97.2235    8.5000   55.5000   79.7700   -3.2896 
9231.0000    8.8060    3.0130    0.1000    0.0000    0.0001    0.0000    1.0000    4.0000    0.8419    0.1264  100.3515    8.5000   55.5000   80.4700   -3.7199 
9231.5000    8.8480    3.0189    0.1000    0.0000    0.0001    0.0000    1.0000    4.0000    0.8619    0.1294  102.3326    8.5000   55.5000   80.2900   -3.6842 
9232.0000    8.9120    2.9763    0.1000    0.0000    0.0001    0.0000    1.0000    4.0000    0.8638    0.1297  102.5150    8.5000   55.5000   80.8800   -3.4524 
9232.5000    8.9590    2.9073    0.1000    0.0000    0.0001    0.0000    1.0000    4.0000    0.8529    0.1280  101.4332    8.5000   55.5000   81.6200   -2.8477 
9233.0000    8.9340    2.8292    0.1000    0.0000    0.0001    0.0000    1.0000    4.0000    0.8355    0.1254   99.7128    8.5000   55.5000   82.4400   -2.6780 
9233.5000    8.9540    2.7894    0.1000    0.0000    0.0001    0.0000    1.0000    4.0000    0.8161    0.1225   97.7969    8.5000   55.5000   82.3300   -2.6272 
9234.0000    8.9780    2.7510    0.1000    0.0000    0.0001    0.0000    1.0000    4.0000    0.8002    0.1201   96.2199    8.5000   55.5000   81.3900   -2.4125 
9234.5000    8.9310    2.7120    0.1000    0.0000    0.0001    0.0000    1.0000    4.0000    0.8048    0.1208   96.6761    8.5000   55.5000   80.7000   -2.6418 
9235.0000    9.1460    2.6730    0.1000    0.0000    0.0001    0.0000    1.0000    4.0000    0.7993    0.1200   96.1287    8.5000   55.5000   80.5300   -2.1450 
9235.5000    9.2160    2.6523    0.1000    0.0000    0.0001    0.0000    1.0000    4.0000    0.7938    0.1192   95.5813    8.5000   55.5000   80.8400   -2.3493 
9236.0000    9.0980    2.6787    0.1000    0.0000    0.0001    0.0000    1.0000    4.0000    0.7899    0.1186   95.2033    8.5000   55.5000   81.8600   -2.9046 
9236.5000    8.9890    2.7231    0.1000    0.0000    0.0001    0.0000    1.0000    4.0000    0.7807    0.1172   94.2909    8.5000   55.5000   81.9500   -3.0268 
9237.0000    9.0960    2.7299    0.1000    0.0000    0.0001    0.0000    1.0000    4.0000    0.7657    0.1150   92.8051    8.5000   55.5000   82.3400   -2.8121 
9237.5000    9.1930    2.7300    0.1000    0.0000    0.0001    0.0000    1.0000    4.0000    0.7610    0.1142   92.3359    8.5000   55.5000   83.0000   -2.6834 
9238.0000    9.0370    2.7300    0.1000    0.0000    0.0001    0.0000    1.0000    4.0000    0.7740    0.1162   93.6262    8.5000   55.5000   83.3100   -2.8846 
9238.5000    8.9310    2.7309    0.1000    0.0000    0.0001    0.0000    1.0000    4.0000    0.7894    0.1185   95.1511    8.5000   55.5000   84.0600   -2.5889 
9239.0000    8.9400    2.7144    0.1000    0.0000    0.0001    0.0000    1.0000    4.0000    0.8057    0.1210   96.7673    8.5000   55.5000   84.2500   -2.2652 
9239.5000    8.9000    2.7120    0.1000    0.0000    0.0001    0.0000    1.0000    4.0000    0.8140    0.1222   97.5884    8.5000   55.5000   84.0900   -2.4474 
9240.0000    8.9420    2.6789    0.1000    0.0000    0.0001    0.0000    1.0000    4.0000    0.8285    0.1244   99.0221    8.5000   55.5000   83.7500   -2.6107 
9240.5000    9.1300    2.6740    0.1000    0.0000    0.0001    0.0000    1.0000    4.0000    0.8398    0.1261  100.1429    8.5000   55.5000   83.6300   -2.1490 
9241.0000    9.1110    2.6574    0.1000    0.0000    0.0001    0.0000    1.0000    4.0000    0.8515    0.1278  101.3029    8.5000   55.5000   83.8700   -2.0296 
9241.5000    9.0460    2.5871    0.1000    0.0000    0.0001    0.0000    1.0000    4.0000    0.8577    0.1288  101.9155    8.5000   55.5000   84.4800   -2.2319 
9242.0000    9.0770    2.5134    0.1000    0.0000    0.0001    0.0000    1.0000    4.0000    0.8671    0.1302  102.8409    8.5000   55.5000   84.5100   -2.3082 
9242.5000    9.1900    2.4003    0.1000    0.0000    0.0001    0.0000    1.0000    4.0000    0.8854    0.1329  104.6525    8.5000   55.5000   85.0000   -1.6135 
9243.0000    9.1270    2.3136    0.1000    0.0000    0.0001    0.0000    1.0000    4.0000    0.9118    0.1369  107.2722    8.5000   55.5000   85.6000   -1.1328 
9243.5000    9.0430    2.2864    0.1000    0.0000    0.0001    0.0000    1.0000    4.0000    0.9365    0.1406  109.7095    8.5000   55.5000   85.6500   -1.3011 
9244.0000    8.9120    2.2396    0.1000    0.0000    0.0001    0.0000    1.0000    4.0000    0.8928    0.1340  105.3824    8.5000   55.5000   85.1600   -1.6644 
9244.5000    8.9010    2.1921    0.1000    0.0000    0.0001    0.0000    1.0000    4.0000    0.8431    0.1266  100.4688    8.5000   55.5000   84.6900   -1.8647 
9245.0000    8.9200    2.1869    0.1000    0.0000    0.0001    0.0000    1.0000    4.0000    0.8030    0.1205   96.4936    8.5000   55.5000   84.6000   -2.1739 
9245.5000    8.8760    2.2218    0.1000    0.0000    0.0001    0.0000    1.0000    4.0000    0.8120    0.1219   97.3929    8.5000   55.5000   84.7700   -2.5742 
9246.0000    8.8310    2.2444    0.1000    0.0000    0.0001    0.0000    1.0000    4.0000    0.8401    0.1261  100.1690    8.5000   55.5000   84.7300   -1.9995 
9246.5000    8.8410    2.2984    0.1000    0.0000    0.0001    0.0000    1.0000    4.0000    0.8702    0.1306  103.1537    8.5000   55.5000   84.3400   -1.5738 
9247.0000    8.8020    2.3408    0.1000    0.0000    0.0001    0.0000    1.0000    4.0000    0.8659    0.1300  102.7236    8.5000   55.5000   84.1500   -1.6351 
9247.5000    8.7040    2.3678    0.1000    0.0000    0.0001    0.0000    1.0000    4.0000    0.8598    0.1291  102.1240    8.5000   55.5000   84.3300   -2.0644 
9248.0000    8.6490    2.4355    0.1000    0.0000    0.0001    0.0000    1.0000    4.0000    0.8560    0.1285  101.7461    8.5000   55.5000   84.1700   -1.8927 
9248.5000    8.6440    2.4798    0.1000    0.0000    0.0001    0.0000    1.0000    4.0000    0.8564    0.1286  101.7852    8.5000   55.5000   84.0300   -1.5060 
9249.0000    8.6340    2.4859    0.1000    0.0000    0.0001    0.0000    1.0000    4.0000    0.8564    0.1286  101.7852    8.5000   55.5000   84.3900   -1.6213 
9249.5000    8.6350    2.4694    0.1000    0.0000    0.0001    0.0000    1.0000    4.0000    0.8504    0.1277  101.1856    8.5000   55.5000   84.2700   -2.1876 
