~VERSION INFORMATION
 VERS.                 2.0:   CWLS LOG ASCII STANDARD - VERSION 2.0
 WRAP.                  NO:   SINGLE LINE PER DEPTH STEP
 CREA.                 02/27/2023 11:24:21
#CREATED USING DSPetro VERSION 10ep.5.0.03 BY H225751 ON 02/27/2023 11:24:21
~WELL INFORMATION
#MNEM.UNIT       DATA                          DESCRIPTION MNEMONIC
#---------      ---------------------------   --------------------------
 STRT    .FT        8900.0000                 : START DEPTH
 STOP    .FT        10200.0000                : STOP DEPTH
 STEP    .FT        0.5000                    : STEP VALUE
 NULL    .      -999.0000                     : NULL VALUE
 DATE    .      02/27/2023                    : LAS file Creation Date
 WELL   .      LGA-021                        : Well Name
 COMP   .      PETROPRODUCCION                : Company
 FLD    .      LAGO AGRIO                     : Field
 STATE  .      SUCUMBIOS                      : State
 COUNT  .      ECUADOR                        : Country
 UWI    .      LGA-021                        : Unique Well Identifier (UWI)
 LOC    .      TWP        - Range       - Sec : Location
 PDAT   .      GR                             : Permanent Datum
 LGMEA  .      KB                             : Log Measured from
 DRMEA  .      KB                             : Drill Measured From
 KB     .      986                            : KB Elevation
 DF     .      -999.2500                      : DF Elevation
 GL     .      -999.2500                      : GL Elevation
 RWS    .      0                              : Def_Rw
 WST    .      0                              : Def_Rwt
 UTMZ   .      31                             : UTM Zone
 CNTY   .      LA                             : County
 PROV   .      SUCUMBIOS                      : Province
 MDEC   .      0                              : Magnetic Declination
 SRVC   .      SCH                            : Contractor
 GDAT   .      WGS 84                         : Geodatum
 LONG   .      0                              : Longitude
 LATI   .      0                              : Latitude
 COORDIN.                                     : Grid System
 XCOORD .                                     : X or East-West Coordinate
 YCOORD .                                     : Y or North-South Coordinate
~CURVE INFORMATION
#MNEM              UNIT       API CODE   Curve Type Comments
#----------  --------------- ----------  ---------- -----------
 DEPTH      .FT                        : Depth       
 CALI       .inches                    : Caliper     Caliper
 ILD        .ohm.m                     :             
 KTR        .                          :             Multi-Line Formulae Output Curve
 PayFlag    .                          : PayFlag     
 PHIE       .Dec                       : Phi         
 ResFlag    .                          : ResFlag     
 SW         .Dec                       : Sw          
 TR1        .                          :             Multi-Line Formulae Output Curve
 VCLGR      .Dec                       : Vcl         
 PHIT       .Dec                       : PhiT        
 GR         .API                       : GammaRay    GRn = 1.30334 x GR + -6.4442
 BS         .inch                      : BitSize     Multi-Line Formulae Output Curve
 DTMA       .uSec/ft                   : DTMatx      
 DT         .us/ft                     : Sonic       Sonic Travel Time
 SP         .mV                        : SP          
~A  DEPTH    CALI      ILD       KTR     PayFlag     PHIE    ResFlag      SW       TR1      VCLGR      PHIT       GR        BS       DTMA       DT        SP    
# ...
9900.0000    8.5730   58.0306   65.7629    1.0000    0.1133    1.0000    0.1480    2.0000    0.3741    0.1694   77.6082    8.5000   40.0000   73.2200   -8.3765 
9900.5000    8.3640   53.0080  113.2821    1.0000    0.1332    1.0000    0.1433    2.0000    0.3116    0.1799   67.9895    8.5000   40.0000   73.8000   -8.3756 
9901.0000    8.1090   45.2038  147.0490    1.0000    0.1439    1.0000    0.1487    1.0000    0.2887    0.1872   64.4575    8.5000   40.0000   74.5500   -9.2496 
9901.5000    7.9900   40.2550   69.1729    1.0000    0.1151    1.0000    0.1737    2.0000    0.4053    0.1759   82.4175    8.5000   40.0000   74.7500   -9.5727 
9902.0000    8.1190   33.1716    1.3100    0.0000    0.0643    0.0000    0.2469    4.0000    0.5842    0.1520  109.9701    8.5000   40.0000   74.0400   -7.8597 
9902.5000    8.4740   29.9708    0.1000    0.0000    0.0001    0.0000    1.0000    4.0000    0.7077    0.1063  128.9859    8.5000   40.0000   76.3200   -5.9568 
9903.0000    8.4950   29.8815    0.1000    0.0000    0.0001    0.0000    1.0000    4.0000    0.8246    0.1238  146.9850    8.5000   40.0000   75.4800   -4.4079 
9903.5000    8.5050   29.3753    0.1000    0.0000    0.0001    0.0000    1.0000    4.0000    0.8762    0.1315  154.9353    8.5000   40.0000   77.2700   -3.2511 
9904.0000    8.5040   29.7011    0.1000    0.0000    0.0001    0.0000    1.0000    4.0000    0.8159    0.1225  145.6425    8.5000   41.0000   77.9000   -2.7132 
9904.5000    8.5110   29.7094    0.1000    0.0000    0.0001    0.0000    1.0000    4.0000    0.7728    0.1160  139.0085    8.5000   41.0000   74.7600   -2.6094 
9905.0000    8.5060   30.8279    0.1000    0.0000    0.0001    0.0000    1.0000    4.0000    0.7279    0.1093  132.1008    8.5000   41.0000   71.8900   -2.7985 
9905.5000    8.4820   34.5870    0.1000    0.0000    0.0001    0.0000    1.0000    4.0000    0.6898    0.1036  126.2228    8.5000   41.0000   70.3300   -3.6946 
9906.0000    8.4560   40.0217    0.1000    0.0000    0.0001    0.0000    1.0000    4.0000    0.6592    0.0990  121.5177    8.5000   41.0000   70.1800   -4.9948 
9906.5000    8.4390   46.3504    0.1000    0.0000    0.0001    0.0000    1.0000    4.0000    0.6867    0.1031  125.7536    8.5000   41.0000   71.0400   -6.8959 
9907.0000    8.4340   50.9542    0.1000    0.0000    0.0001    0.0000    1.0000    4.0000    0.7067    0.1061  128.8295    8.5000   41.0000   72.0300   -7.7801 
9907.5000    8.4330   51.4741    0.1000    0.0000    0.0001    0.0000    1.0000    4.0000    0.6436    0.0966  119.1196    8.5000   41.0000   70.3400   -8.6912 
9908.0000    8.4310   51.8216    0.1000    0.0000    0.0001    0.0000    1.0000    4.0000    0.5185    0.0779   99.8562    8.5000   41.0000   69.2100  -10.3834 
9908.5000    8.4340   58.9313    1.3017    0.0000    0.0639    0.0000    0.3070    4.0000    0.4315    0.1287   86.4448    8.5000   41.0000   68.1800  -13.1255 
9909.0000    8.4290   72.1741    1.2482    0.0000    0.0631    0.0000    0.2852    4.0000    0.4101    0.1246   83.1604    8.5000   41.0000   67.2100  -16.3217 
9909.5000    8.4190   88.7228    0.1000    0.0000    0.0001    0.0000    1.0000    4.0000    0.4961    0.0745   96.4024    8.5000   41.0000   66.0800  -19.7178 
9910.0000    8.4110  106.2367    0.1000    0.0000    0.0001    0.0000    1.0000    4.0000    0.5804    0.0872  109.3836    8.5000   41.0000   66.0200  -19.8779 
9910.5000    8.4100  117.2397    0.1000    0.0000    0.0001    0.0000    1.0000    4.0000    0.6910    0.1038  126.4183    8.5000   41.0000   66.6700  -19.0621 
9911.0000    8.4140  121.5492    0.1000    0.0000    0.0001    0.0000    1.0000    4.0000    0.7657    0.1150  137.9137    8.5000   41.0000   66.8200  -17.1722 
9911.5000    8.4270  122.2698    0.1000    0.0000    0.0001    0.0000    1.0000    4.0000    0.7460    0.1120  134.8900    8.5000   41.0000   67.1900  -15.0754 
9912.0000    8.4290  124.1990    0.1000    0.0000    0.0001    0.0000    1.0000    4.0000    0.7508    0.1127  135.6199    8.5000   41.0000   66.4100  -13.7265 
9912.5000    8.4320  123.6655    0.1000    0.0000    0.0001    0.0000    1.0000    4.0000    0.7801    0.1171  140.1424    8.5000   41.0000   65.0900  -12.7267 
9913.0000    8.4310  121.4949    0.1000    0.0000    0.0001    0.0000    1.0000    4.0000    0.8439    0.1267  149.9566    8.5000   41.0000   64.7300  -11.6848 
9913.5000    8.4290  117.7611    0.1000    0.0000    0.0001    0.0000    1.0000    4.0000    0.8842    0.1327  156.1735    8.5000   41.0000   65.8600  -10.4410 
9914.0000    8.4280  112.5735    0.1000    0.0000    0.0001    0.0000    1.0000    4.0000    0.9448    0.1418  165.5054    8.5000   41.0000   67.0600   -9.3241 
9914.5000    8.4270  107.3444    0.1000    0.0000    0.0001    0.0000    1.0000    4.0000    1.0205    0.1501  177.1573    8.5000   41.0000   68.3100   -8.0922 
9915.0000    8.4300  105.0544    0.1000    0.0000    0.0001    0.0000    1.0000    4.0000    1.0795    0.1501  186.2416    8.5000   41.0000   70.0700   -7.0114 
9915.5000    8.4300  104.5140    0.1000    0.0000    0.0001    0.0000    1.0000    4.0000    1.1416    0.1501  195.8081    8.5000   41.0000   71.2700   -6.2035 
9916.0000    8.5190  105.4087    0.1000    0.0000    0.0001    0.0000    1.0000    4.0000    0.9443    0.1417  192.8625    8.5000   41.0000   70.8700   -6.1087 
9916.5000    8.6200  107.4493    0.1000    0.0000    0.0001    0.0000    1.0000    4.0000    0.8550    0.1283  176.6099    8.5000   41.0000   69.9200   -6.1318 
9917.0000    8.6620  109.5959    0.1000    0.0000    0.0001    0.0000    1.0000    4.0000    0.7815    0.1173  163.2376    8.5000   41.0000   68.9900   -6.3430 
9917.5000    8.6350  111.4611    0.1000    0.0000    0.0001    0.0000    1.0000    4.0000    0.6876    0.1032  146.1508    8.5000   41.0000   68.9300   -7.2171 
9918.0000    8.5480  113.3310    0.1000    0.0000    0.0001    0.0000    1.0000    4.0000    0.5507    0.0827  121.2310    8.5000   41.0000   68.3900   -8.4233 
9918.5000    8.5060  115.2991    0.1000    0.0000    0.0001    0.0000    1.0000    4.0000    0.5100    0.0766  113.8150    8.5000   41.0000   69.0400   -9.7334 
9919.0000    8.4980  117.3341    1.3415    0.0000    0.0638    0.0000    0.2075    4.0000    0.4873    0.1369  109.6964    8.5000   41.0000   70.4600  -10.7985 
9919.5000    8.5120  118.4630    5.8478    0.0000    0.0709    0.0000    0.1967    4.0000    0.4714    0.1416  106.7900    8.5000   41.0000   70.9400  -12.1227 
9920.0000    8.5310  116.6504    4.8534    0.0000    0.0672    0.0000    0.2055    4.0000    0.4662    0.1372  105.8516    8.5000   41.0000   70.1500  -12.8038 
9920.5000    8.5370  110.2050    0.9686    0.0000    0.0577    0.0000    0.2275    4.0000    0.4813    0.1299  108.6016    8.5000   41.0000   69.2600  -13.0740 
9921.0000    8.5010   98.4641    0.1000    0.0000    0.0001    0.0000    1.0000    4.0000    0.5105    0.0767  113.9192    8.5000   41.0000   67.8600  -13.2071 
9921.5000    8.4600   88.1263    0.1000    0.0000    0.0001    0.0000    1.0000    4.0000    0.5769    0.0866  125.9882    8.5000   41.0000   66.9700  -12.6133 
9922.0000    8.4240   78.9237    0.1000    0.0000    0.0001    0.0000    1.0000    4.0000    0.6318    0.0949  135.9848    8.5000   41.0000   67.3800  -11.2544 
9922.5000    8.4230   69.9142    0.1000    0.0000    0.0001    0.0000    1.0000    4.0000    0.6929    0.1040  147.1153    8.5000   41.0000   66.4200   -9.6336 
9923.0000    8.4360   62.9802    0.1000    0.0000    0.0001    0.0000    1.0000    4.0000    0.8491    0.1275  175.5412    8.5000   41.0000   67.8000   -8.5627 
9923.5000    8.4050   56.7194    0.1000    0.0000    0.0001    0.0000    1.0000    4.0000    0.9418    0.1414  192.4064    8.5000   41.0000   70.8500   -7.7028 
9924.0000    8.3260   49.6974    0.1000    0.0000    0.0001    0.0000    1.0000    4.0000    1.0125    0.1501  205.2834    8.5000   41.0000   73.3600   -6.5700 
9924.5000    8.3780   45.5595    0.1000    0.0000    0.0001    0.0000    1.0000    4.0000    1.0670    0.1501  215.1888    8.5000   41.0000   73.8200   -4.9871 
