~VERSION INFORMATION
 VERS.                 2.0:   CWLS LOG ASCII STANDARD - VERSION 2.0
 WRAP.                  NO:   SINGLE LINE PER DEPTH STEP
 CREA.                 02/27/2023 11:24:21
#CREATED USING DSPetro VERSION 10ep.5.0.03 BY H225751 ON 02/27/2023 11:24:21
~WELL INFORMATION
#MNEM.UNIT       DATA                          DESCRIPTION MNEMONIC
#---------      ---------------------------   --------------------------
 STRT    .FT        8900.0000                 : START DEPTH
 STOP    .FT        10200.0000                : STOP DEPTH
 STEP    .FT        0.5000                    : STEP VALUE
 NULL    .      -999.0000                     : NULL VALUE
 DATE    .      02/27/2023                    : LAS file Creation Date
 WELL   .      LGA-021                        : Well Name
 COMP   .      PETROPRODUCCION                : Company
 FLD    .      LAGO AGRIO                     : Field
 STATE  .      SUCUMBIOS                      : State
 COUNT  .      ECUADOR                        : Country
 UWI    .      LGA-021                        : Unique Well Identifier (UWI)
 LOC    .      TWP        - Range       - Sec : Location
 PDAT   .      GR                             : Permanent Datum
 LGMEA  .      KB                             : Log Measured from
 DRMEA  .      KB                             : Drill Measured From
 KB     .      986                            : KB Elevation
 DF     .      -999.2500                      : DF Elevation
 GL     .      -999.2500                      : GL Elevation
 RWS    .      0                              : Def_Rw
 WST    .      0                              : Def_Rwt
 UTMZ   .      31                             : UTM Zone
 CNTY   .      LA                             : County
 PROV   .      SUCUMBIOS                      : Province
 MDEC   .      0                              : Magnetic Declination
 SRVC   .      SCH                            : Contractor
 GDAT   .      WGS 84                         : Geodatum
 LONG   .      0                              : Longitude
 LATI   .      0                              : Latitude
 COORDIN.                                     : Grid System
 XCOORD .                                     : X or East-West Coordinate
 YCOORD .                                     : Y or North-South Coordinate
~CURVE INFORMATION
#MNEM              UNIT       API CODE   Curve Type Comments
#----------  --------------- ----------  ---------- -----------
 DEPTH      .FT                        : Depth       
 CALI       .inches                    : Caliper     Caliper
 ILD        .ohm.m                     :             
 KTR        .                          :             Multi-Line Formulae Output Curve
 PayFlag    .                          : PayFlag     
 PHIE       .Dec                       : Phi         
 ResFlag    .                          : ResFlag     
 SW         .Dec                       : Sw          
 TR1        .                          :             Multi-Line Formulae Output Curve
 VCLGR      .Dec                       : Vcl         
 PHIT       .Dec                       : PhiT        
 GR         .API                       : GammaRay    GRn = 1.30334 x GR + -6.4442
 BS         .inch                      : BitSize     Multi-Line Formulae Output Curve
 DTMA       .uSec/ft                   : DTMatx      
 DT         .us/ft                     : Sonic       Sonic Travel Time
 SP         .mV                        : SP          
~A  DEPTH    CALI      ILD       KTR     PayFlag     PHIE    ResFlag      SW       TR1      VCLGR      PHIT       GR        BS       DTMA       DT        SP    
# ...
9725.0000    9.6240   12.0028    0.1000    0.0000    0.0001    0.0000    1.0000    4.0000    0.9996    0.1500  149.9566    8.5000   55.5000   82.8200   -4.2406 
9725.5000    9.7800   10.7445    0.1000    0.0000    0.0001    0.0000    1.0000    4.0000    0.9996    0.1500  149.9566    8.5000   55.5000   86.5100   -3.8459 
9726.0000   10.3340    8.5344    0.1000    0.0000    0.0001    0.0000    1.0000    4.0000    0.9858    0.1480  148.2362    8.5000   55.5000   86.7900   -3.7682 
9726.5000   11.1000    7.0029    0.1000    0.0000    0.0001    0.0000    1.0000    4.0000    0.9655    0.1449  145.7207    8.5000   55.5000   87.1500   -3.9984 
9727.0000   11.2170    6.1483    0.1000    0.0000    0.0001    0.0000    1.0000    4.0000    0.9638    0.1447  145.5122    8.5000   55.5000   88.3400   -3.7977 
9727.5000   10.9720    5.9515    0.1000    0.0000    0.0001    0.0000    1.0000    4.0000    0.9689    0.1454  146.1378    8.5000   55.5000   85.3500   -2.8800 
9728.0000   10.6960    6.0248    0.1000    0.0000    0.0001    0.0000    1.0000    4.0000    0.9780    0.1468  147.2717    8.5000   55.5000   84.3400   -2.0893 
9728.5000   10.6320    6.1181    0.1000    0.0000    0.0001    0.0000    1.0000    4.0000    0.9929    0.1490  149.1225    8.5000   55.5000   83.5300   -1.9116 
9729.0000   11.1580    6.2684    0.1000    0.0000    0.0001    0.0000    1.0000    4.0000    1.0131    0.1501  151.6249    8.5000   55.5000   82.4900   -1.9488 
9729.5000   11.2980    6.5573    0.1000    0.0000    0.0001    0.0000    1.0000    4.0000    1.0110    0.1501  151.3642    8.5000   55.5000   83.8000   -2.1301 
9730.0000   11.0180    6.9263    0.1000    0.0000    0.0001    0.0000    1.0000    4.0000    0.9987    0.1499  149.8393    8.5000   55.5000   83.9100   -1.8004 
9730.5000   10.6790    7.1780    0.1000    0.0000    0.0001    0.0000    1.0000    4.0000    0.9865    0.1481  148.3274    8.5000   55.5000   85.3000   -1.7337 
9731.0000   10.9910    7.2664    0.1000    0.0000    0.0001    0.0000    1.0000    4.0000    0.9788    0.1469  147.3760    8.5000   55.5000   83.1700   -2.0640 
9731.5000   10.9950    7.1696    0.1000    0.0000    0.0001    0.0000    1.0000    4.0000    0.9867    0.1481  148.3535    8.5000   55.5000   82.1800   -1.9857 
9732.0000   10.9960    7.0460    0.1000    0.0000    0.0001    0.0000    1.0000    4.0000    1.0154    0.1501  151.9116    8.5000   55.5000   81.6900   -1.7001 
9732.5000   10.4740    6.9586    0.1000    0.0000    0.0001    0.0000    1.0000    4.0000    1.0179    0.1501  152.2244    8.5000   55.5000   80.7200   -1.8885 
9733.0000   10.6380    6.8757    0.1000    0.0000    0.0001    0.0000    1.0000    4.0000    1.0126    0.1501  151.5597    8.5000   55.5000   82.0700   -2.2759 
9733.5000   10.4720    6.8868    0.1000    0.0000    0.0001    0.0000    1.0000    4.0000    0.9896    0.1485  148.7054    8.5000   55.5000   82.9500   -2.7563 
9734.0000   11.0350    6.9231    0.1000    0.0000    0.0001    0.0000    1.0000    4.0000    0.9557    0.1435  144.5086    8.5000   55.5000   85.4900   -2.9977 
9734.5000   11.3050    6.7834    0.1000    0.0000    0.0001    0.0000    1.0000    4.0000    0.9037    0.1357  138.0571    8.5000   55.5000   85.3700   -2.5362 
9735.0000   11.2650    6.5495    0.1000    0.0000    0.0001    0.0000    1.0000    4.0000    0.8726    0.1310  134.1992    8.5000   55.5000   85.7400   -2.8056 
9735.5000   11.2810    6.3795    0.1000    0.0000    0.0001    0.0000    1.0000    4.0000    0.8766    0.1316  134.6945    8.5000   55.5000   85.4200   -2.5330 
9736.0000   11.3770    6.3320    0.1000    0.0000    0.0001    0.0000    1.0000    4.0000    0.8921    0.1339  136.6234    8.5000   55.5000   85.9500   -1.6194 
9736.5000   11.2220    6.3367    0.1000    0.0000    0.0001    0.0000    1.0000    4.0000    0.9107    0.1367  138.9303    8.5000   55.5000   87.5300   -1.4868 
9737.0000   10.9940    6.4425    0.1000    0.0000    0.0001    0.0000    1.0000    4.0000    0.9125    0.1370  139.1519    8.5000   55.5000   87.8600   -1.5362 
9737.5000   10.9290    6.5939    0.1000    0.0000    0.0001    0.0000    1.0000    4.0000    0.9068    0.1361  138.4481    8.5000   55.5000   87.8100   -1.5517 
9738.0000   10.6460    6.7612    0.1000    0.0000    0.0001    0.0000    1.0000    4.0000    0.8903    0.1337  136.4019    8.5000   55.5000   85.9900   -1.7861 
9738.5000   10.5360    6.9032    0.1000    0.0000    0.0001    0.0000    1.0000    4.0000    0.8950    0.1343  136.9753    8.5000   55.5000   83.8300   -2.2405 
9739.0000   10.5580    7.0299    0.1000    0.0000    0.0001    0.0000    1.0000    4.0000    0.9188    0.1379  139.9339    8.5000   55.5000   83.9400   -2.1639 
9739.5000   10.5300    7.1227    0.1000    0.0000    0.0001    0.0000    1.0000    4.0000    0.9321    0.1399  141.5761    8.5000   55.5000   83.7500   -1.3573 
9740.0000   10.7250    7.2411    0.1000    0.0000    0.0001    0.0000    1.0000    4.0000    0.9294    0.1395  141.2503    8.5000   55.5000   85.7000   -1.3267 
9740.5000   10.3640    7.3450    0.1000    0.0000    0.0001    0.0000    1.0000    4.0000    0.9342    0.1402  141.8368    8.5000   55.5000   85.2700   -1.5962 
9741.0000    9.3080    7.4704    0.1000    0.0000    0.0001    0.0000    1.0000    4.0000    0.9350    0.1404  141.9411    8.5000   55.5000   83.7100   -1.2356 
9741.5000    9.2860    7.6159    0.1000    0.0000    0.0001    0.0000    1.0000    4.0000    0.9268    0.1391  140.9245    8.5000   55.5000   84.5900   -1.4000 
9742.0000    9.1060    7.7169    0.1000    0.0000    0.0001    0.0000    1.0000    4.0000    0.9155    0.1374  139.5168    8.5000   55.5000   84.7900   -1.6874 
9742.5000    9.1660    7.7273    0.1000    0.0000    0.0001    0.0000    1.0000    4.0000    0.9172    0.1377  139.7384    8.5000   55.5000   83.3300   -2.0438 
9743.0000    9.0640    7.6329    0.1000    0.0000    0.0001    0.0000    1.0000    4.0000    0.9105    0.1367  138.9043    8.5000   55.5000   82.9200   -1.7802 
9743.5000    8.7680    7.5040    0.1000    0.0000    0.0001    0.0000    1.0000    4.0000    0.8933    0.1341  136.7668    8.5000   55.5000   82.0400   -1.4167 
9744.0000    8.7710    7.3711    0.1000    0.0000    0.0001    0.0000    1.0000    4.0000    0.8701    0.1306  133.8864    8.5000   55.5000   82.4700   -1.2381 
9744.5000    8.9710    7.2721    0.1000    0.0000    0.0001    0.0000    1.0000    4.0000    0.8478    0.1273  131.1233    8.5000   55.5000   81.7400   -1.2715 
9745.0000    9.1470    7.2556    0.1000    0.0000    0.0001    0.0000    1.0000    4.0000    0.8217    0.1234  127.8911    8.5000   55.5000   81.5400   -1.5329 
9745.5000    9.7150    7.3317    0.1000    0.0000    0.0001    0.0000    1.0000    4.0000    0.8127    0.1220  126.7702    8.5000   55.5000   81.8200   -1.8273 
9746.0000    9.9280    7.4475    0.1000    0.0000    0.0001    0.0000    1.0000    4.0000    0.8116    0.1218  126.6398    8.5000   55.5000   81.9700   -2.1258 
9746.5000    9.9870    7.5283    0.1000    0.0000    0.0001    0.0000    1.0000    4.0000    0.8286    0.1244  128.7513    8.5000   55.5000   81.5400   -2.1542 
9747.0000   10.4290    7.6399    0.1000    0.0000    0.0001    0.0000    1.0000    4.0000    0.8518    0.1279  131.6186    8.5000   55.5000   81.6200   -1.6896 
9747.5000   10.8700    7.8388    0.1000    0.0000    0.0001    0.0000    1.0000    4.0000    0.8840    0.1327  135.6199    8.5000   55.5000   82.1800   -1.3360 
9748.0000   10.9080    8.0620    0.1000    0.0000    0.0001    0.0000    1.0000    4.0000    0.9063    0.1360  138.3829    8.5000   55.5000   82.1100   -1.3074 
9748.5000   10.8200    8.2556    0.1000    0.0000    0.0001    0.0000    1.0000    4.0000    0.9085    0.1364  138.6566    8.5000   55.5000   82.2500   -1.4198 
9749.0000   10.6380    8.4202    0.1000    0.0000    0.0001    0.0000    1.0000    4.0000    0.9348    0.1403  141.9150    8.5000   55.5000   82.3200   -1.2693 
9749.5000    9.9450    8.5830    0.1000    0.0000    0.0001    0.0000    1.0000    4.0000    0.9690    0.1454  146.1508    8.5000   55.5000   80.8800   -1.1067 
