~VERSION INFORMATION
 VERS.                 2.0:   CWLS LOG ASCII STANDARD - VERSION 2.0
 WRAP.                  NO:   SINGLE LINE PER DEPTH STEP
 CREA.                 02/27/2023 11:24:21
#CREATED USING DSPetro VERSION 10ep.5.0.03 BY H225751 ON 02/27/2023 11:24:21
~WELL INFORMATION
#MNEM.UNIT       DATA                          DESCRIPTION MNEMONIC
#---------      ---------------------------   --------------------------
 STRT    .FT        8900.0000                 : START DEPTH
 STOP    .FT        10200.0000                : STOP DEPTH
 STEP    .FT        0.5000                    : STEP VALUE
 NULL    .      -999.0000                     : NULL VALUE
 DATE    .      02/27/2023                    : LAS file Creation Date
 WELL   .      LGA-021                        : Well Name
 COMP   .      PETROPRODUCCION                : Company
 FLD    .      LAGO AGRIO                     : Field
 STATE  .      SUCUMBIOS                      : State
 COUNT  .      ECUADOR                        : Country
 UWI    .      LGA-021                        : Unique Well Identifier (UWI)
 LOC    .      TWP        - Range       - Sec : Location
 PDAT   .      GR                             : Permanent Datum
 LGMEA  .      KB                             : Log Measured from
 DRMEA  .      KB                             : Drill Measured From
 KB     .      986                            : KB Elevation
 DF     .      -999.2500                      : DF Elevation
 GL     .      -999.2500                      : GL Elevation
 RWS    .      0                              : Def_Rw
 WST    .      0                              : Def_Rwt
 UTMZ   .      31                             : UTM Zone
 CNTY   .      LA                             : County
 PROV   .      SUCUMBIOS                      : Province
 MDEC   .      0                              : Magnetic Declination
 SRVC   .      SCH                            : Contractor
 GDAT   .      WGS 84                         : Geodatum
 LONG   .      0                              : Longitude
 LATI   .      0                              : Latitude
 COORDIN.                                     : Grid System
 XCOORD .                                     : X or East-West Coordinate
 YCOORD .                                     : Y or North-South Coordinate
~CURVE INFORMATION
#MNEM              UNIT       API CODE   Curve Type Comments
#----------  --------------- ----------  ---------- -----------
 DEPTH      .FT                        : Depth       
 CALI       .inches                    : Caliper     Caliper
 ILD        .ohm.m                     :             
 KTR        .                          :             Multi-Line Formulae Output Curve
 PayFlag    .                          : PayFlag     
 PHIE       .Dec                       : Phi         
 ResFlag    .                          : ResFlag     
 SW         .Dec                       : Sw          
 TR1        .                          :             Multi-Line Formulae Output Curve
 VCLGR      .Dec                       : Vcl         
 PHIT       .Dec                       : PhiT        
 GR         .API                       : GammaRay    GRn = 1.30334 x GR + -6.4442
 BS         .inch                      : BitSize     Multi-Line Formulae Output Curve
 DTMA       .uSec/ft                   : DTMatx      
 DT         .us/ft                     : Sonic       Sonic Travel Time
 SP         .mV                        : SP          
~A  DEPTH    CALI      ILD       KTR     PayFlag     PHIE    ResFlag      SW       TR1      VCLGR      PHIT       GR        BS       DTMA       DT        SP    
# ...
9325.0000   11.1840    2.2926    0.1000    0.0000    0.0001    0.0000    1.0000    4.0000    0.9056    0.1359  132.9219    8.5000   55.5000   83.4100   -2.5081 
9325.5000   11.1890    2.4025    0.1000    0.0000    0.0001    0.0000    1.0000    4.0000    0.8963    0.1345  131.7229    8.5000   55.5000   81.8100   -3.0858 
9326.0000   11.3350    2.4665    0.1000    0.0000    0.0001    0.0000    1.0000    4.0000    0.8722    0.1309  128.6470    8.5000   55.5000   82.7300   -2.7585 
9326.5000   11.2140    2.4017    0.1000    0.0000    0.0001    0.0000    1.0000    4.0000    0.8649    0.1298  127.7086    8.5000   55.5000   81.9700   -2.4831 
9327.0000   11.6070    2.2246    0.1000    0.0000    0.0001    0.0000    1.0000    4.0000    0.8799    0.1321  129.6245    8.5000   55.5000   88.1500   -2.8968 
9327.5000   11.6640    2.0223    0.1000    0.0000    0.0001    0.0000    1.0000    4.0000    0.8855    0.1329  130.3413    8.5000   55.5000   90.6000   -3.4994 
9328.0000   11.4990    1.8488    0.1000    0.0000    0.0001    0.0000    1.0000    4.0000    0.8762    0.1315  129.1553    8.5000   55.5000   93.4900   -4.3361 
9328.5000   11.2890    1.7120    0.1000    0.0000    0.0001    0.0000    1.0000    4.0000    0.8633    0.1296  127.5000    8.5000   55.5000   97.5300   -4.3108 
9329.0000   11.1400    1.5809    0.1000    0.0000    0.0001    0.0000    1.0000    4.0000    0.8602    0.1291  127.1091    8.5000   55.5000   95.7400   -3.0704 
9329.5000   10.9770    1.5143    0.1000    0.0000    0.0001    0.0000    1.0000    4.0000    0.8555    0.1284  126.5095    8.5000   55.5000   95.2900   -3.2951 
9330.0000   10.9450    1.5061    0.1000    0.0000    0.0001    0.0000    1.0000    4.0000    0.8464    0.1271  125.3365    8.5000   55.5000   94.1000   -3.2717 
9330.5000   10.9010    1.4877    0.1000    0.0000    0.0001    0.0000    1.0000    4.0000    0.8400    0.1261  124.5154    8.5000   55.5000   94.9800   -2.5654 
9331.0000   10.5460    1.4850    0.1000    0.0000    0.0001    0.0000    1.0000    4.0000    0.8406    0.1262  124.5936    8.5000   55.5000   94.5700   -2.6861 
9331.5000   10.6740    1.4841    0.1000    0.0000    0.0001    0.0000    1.0000    4.0000    0.8408    0.1262  124.6197    8.5000   55.5000   94.8800   -3.0237 
9332.0000   10.7960    1.4500    0.1000    0.0000    0.0001    0.0000    1.0000    4.0000    0.8342    0.1252  123.7725    8.5000   55.5000   95.5900   -2.7364 
9332.5000   11.1590    1.4267    0.1000    0.0000    0.0001    0.0000    1.0000    4.0000    0.8212    0.1233  122.1172    8.5000   55.5000   96.3300   -2.4000 
9333.0000   11.1450    1.4022    0.1000    0.0000    0.0001    0.0000    1.0000    4.0000    0.8054    0.1209  120.0971    8.5000   55.5000   95.0600   -2.5547 
9333.5000   11.2520    1.3868    0.1000    0.0000    0.0001    0.0000    1.0000    4.0000    0.7942    0.1192  118.6634    8.5000   55.5000   94.9800   -2.9574 
9334.0000   11.4100    1.3841    0.1000    0.0000    0.0001    0.0000    1.0000    4.0000    0.7837    0.1176  117.3079    8.5000   55.5000   95.3300   -2.5720 
9334.5000   11.5870    1.3831    0.1000    0.0000    0.0001    0.0000    1.0000    4.0000    0.7835    0.1176  117.2819    8.5000   55.5000   93.9700   -2.4517 
9335.0000   11.5910    1.4004    0.1000    0.0000    0.0001    0.0000    1.0000    4.0000    0.7903    0.1186  118.1551    8.5000   55.5000   96.1100   -2.9083 
9335.5000   11.4000    1.4370    0.1000    0.0000    0.0001    0.0000    1.0000    4.0000    0.7890    0.1184  117.9857    8.5000   55.5000   96.3800   -2.5450 
9336.0000   11.4000    1.5753    0.1000    0.0000    0.0001    0.0000    1.0000    4.0000    0.7777    0.1168  116.5520    8.5000   55.5000   93.3000   -2.7627 
9336.5000   11.6460    1.7710    0.1000    0.0000    0.0001    0.0000    1.0000    4.0000    0.7586    0.1139  114.1017    8.5000   55.5000   90.0900   -1.9393 
9337.0000   12.0210    1.9102    0.1000    0.0000    0.0001    0.0000    1.0000    4.0000    0.7340    0.1102  110.9476    8.5000   55.5000   86.8900   -1.7430 
9337.5000   11.4900    2.0237    6.3687    0.0000    0.0727    0.0000    0.7257    4.0000    0.7032    0.1782  107.0116    8.5000   55.5000   84.0100   -2.4876 
9338.0000   11.9800    2.0990    1.0819    0.0000    0.0597    0.0000    0.7624    4.0000    0.7180    0.1674  108.9014    8.5000   55.5000   81.5400   -2.1523 
9338.5000   12.2510    2.1246    0.1000    0.0000    0.0001    0.0000    1.0000    4.0000    0.7928    0.1190  118.4809    8.5000   55.5000   81.9600   -2.1940 
9339.0000   12.0240    2.1270    0.1000    0.0000    0.0001    0.0000    1.0000    4.0000    0.8380    0.1258  124.2678    8.5000   55.5000   78.7900   -3.1106 
9339.5000   11.9760    2.1261    0.1000    0.0000    0.0001    0.0000    1.0000    4.0000    0.8702    0.1306  128.3863    8.5000   55.5000   83.6400   -3.9093 
9340.0000   11.9720    2.1251    0.1000    0.0000    0.0001    0.0000    1.0000    4.0000    0.8603    0.1291  127.1221    8.5000   55.5000   88.6800   -3.8030 
9340.5000   11.8300    2.0605    0.1000    0.0000    0.0001    0.0000    1.0000    4.0000    0.8317    0.1249  123.4597    8.5000   55.5000   91.3400   -3.5116 
9341.0000   12.0060    1.9369    0.1000    0.0000    0.0001    0.0000    1.0000    4.0000    0.8055    0.1209  120.1101    8.5000   55.5000   90.3200   -3.0823 
9341.5000   12.0850    1.8407    0.1000    0.0000    0.0001    0.0000    1.0000    4.0000    0.7977    0.1198  119.1065    8.5000   55.5000   90.1100   -2.9649 
9342.0000   11.9570    1.7515    0.1000    0.0000    0.0001    0.0000    1.0000    4.0000    0.8096    0.1215  120.6314    8.5000   55.5000   91.5000   -3.1776 
9342.5000   11.6990    1.6633    0.1000    0.0000    0.0001    0.0000    1.0000    4.0000    0.8348    0.1253  123.8507    8.5000   55.5000   92.5200   -3.8563 
9343.0000   11.5440    1.5649    0.1000    0.0000    0.0001    0.0000    1.0000    4.0000    0.8643    0.1297  127.6304    8.5000   55.5000   92.0500   -3.7249 
9343.5000   11.5360    1.5346    0.1000    0.0000    0.0001    0.0000    1.0000    4.0000    0.8873    0.1332  130.5759    8.5000   55.5000   94.5600   -3.6856 
9344.0000   11.5600    1.5146    0.1000    0.0000    0.0001    0.0000    1.0000    4.0000    0.8980    0.1348  131.9444    8.5000   55.5000   93.2900   -4.0022 
9344.5000   11.5790    1.5111    0.1000    0.0000    0.0001    0.0000    1.0000    4.0000    0.8797    0.1321  129.5984    8.5000   55.5000   96.0600   -3.0479 
9345.0000   11.3930    1.5110    0.1000    0.0000    0.0001    0.0000    1.0000    4.0000    0.8505    0.1277  125.8578    8.5000   55.5000   93.6800   -3.0616 
9345.5000   11.1940    1.5101    0.1000    0.0000    0.0001    0.0000    1.0000    4.0000    0.8104    0.1217  120.7357    8.5000   55.5000   92.2200   -3.6192 
9346.0000   11.0520    1.5361    0.1000    0.0000    0.0001    0.0000    1.0000    4.0000    0.7766    0.1166  116.4086    8.5000   55.5000   93.2700   -3.9399 
9346.5000   11.2420    1.6097    0.1000    0.0000    0.0001    0.0000    1.0000    4.0000    0.7359    0.1105  111.1953    8.5000   55.5000   96.5200   -3.8125 
9347.0000   11.4540    1.6435    1.4429    0.0000    0.0653    0.0000    0.8367    4.0000    0.7115    0.1720  108.0673    8.5000   55.5000   95.3900   -3.0052 
9347.5000   11.9250    1.6801   10.2531    0.0000    0.0833    0.0000    0.7554    3.0000    0.6922    0.1872  105.6039    8.5000   55.5000   94.1100   -2.2509 
9348.0000   11.0580    1.7024   13.1404    0.0000    0.0895    0.0000    0.7286    2.0000    0.6862    0.1924  104.8350    8.5000   55.5000   90.1800   -2.0485 
9348.5000   11.1740    1.7216    9.9928    0.0000    0.0827    0.0000    0.7484    3.0000    0.6928    0.1866  105.6821    8.5000   55.5000   90.5800   -2.1302 
9349.0000   11.3540    1.7231    6.6636    0.0000    0.0736    0.0000    0.7826    4.0000    0.7022    0.1790  106.8812    8.5000   55.5000   88.8800   -2.3608 
9349.5000   11.2750    1.7230    5.8667    0.0000    0.0710    0.0000    0.7932    4.0000    0.7050    0.1767  107.2461    8.5000   55.5000   89.9900   -2.1195 
