~VERSION INFORMATION
 VERS.                 2.0:   CWLS LOG ASCII STANDARD - VERSION 2.0
 WRAP.                  NO:   SINGLE LINE PER DEPTH STEP
 CREA.                 02/27/2023 11:24:21
#CREATED USING DSPetro VERSION 10ep.5.0.03 BY H225751 ON 02/27/2023 11:24:21
~WELL INFORMATION
#MNEM.UNIT       DATA                          DESCRIPTION MNEMONIC
#---------      ---------------------------   --------------------------
 STRT    .FT        8900.0000                 : START DEPTH
 STOP    .FT        10200.0000                : STOP DEPTH
 STEP    .FT        0.5000                    : STEP VALUE
 NULL    .      -999.0000                     : NULL VALUE
 DATE    .      02/27/2023                    : LAS file Creation Date
 WELL   .      LGA-021                        : Well Name
 COMP   .      PETROPRODUCCION                : Company
 FLD    .      LAGO AGRIO                     : Field
 STATE  .      SUCUMBIOS                      : State
 COUNT  .      ECUADOR                        : Country
 UWI    .      LGA-021                        : Unique Well Identifier (UWI)
 LOC    .      TWP        - Range       - Sec : Location
 PDAT   .      GR                             : Permanent Datum
 LGMEA  .      KB                             : Log Measured from
 DRMEA  .      KB                             : Drill Measured From
 KB     .      986                            : KB Elevation
 DF     .      -999.2500                      : DF Elevation
 GL     .      -999.2500                      : GL Elevation
 RWS    .      0                              : Def_Rw
 WST    .      0                              : Def_Rwt
 UTMZ   .      31                             : UTM Zone
 CNTY   .      LA                             : County
 PROV   .      SUCUMBIOS                      : Province
 MDEC   .      0                              : Magnetic Declination
 SRVC   .      SCH                            : Contractor
 GDAT   .      WGS 84                         : Geodatum
 LONG   .      0                              : Longitude
 LATI   .      0                              : Latitude
 COORDIN.                                     : Grid System
 XCOORD .                                     : X or East-West Coordinate
 YCOORD .                                     : Y or North-South Coordinate
~CURVE INFORMATION
#MNEM              UNIT       API CODE   Curve Type Comments
#----------  --------------- ----------  ---------- -----------
 DEPTH      .FT                        : Depth       
 CALI       .inches                    : Caliper     Caliper
 ILD        .ohm.m                     :             
 KTR        .                          :             Multi-Line Formulae Output Curve
 PayFlag    .                          : PayFlag     
 PHIE       .Dec                       : Phi         
 ResFlag    .                          : ResFlag     
 SW         .Dec                       : Sw          
 TR1        .                          :             Multi-Line Formulae Output Curve
 VCLGR      .Dec                       : Vcl         
 PHIT       .Dec                       : PhiT        
 GR         .API                       : GammaRay    GRn = 1.30334 x GR + -6.4442
 BS         .inch                      : BitSize     Multi-Line Formulae Output Curve
 DTMA       .uSec/ft                   : DTMatx      
 DT         .us/ft                     : Sonic       Sonic Travel Time
 SP         .mV                        : SP          
~A  DEPTH    CALI      ILD       KTR     PayFlag     PHIE    ResFlag      SW       TR1      VCLGR      PHIT       GR        BS       DTMA       DT        SP    
# ...
9650.0000    8.7480   33.6280   12.1896    0.0000    0.1132    0.0000    0.2073    2.0000    0.4570    0.1817   88.5432    8.5000   35.0000   74.3800   -4.8335 
9650.5000    8.7660   34.4202   20.4837    1.0000    0.1291    1.0000    0.1950    2.0000    0.3975    0.1887   79.6284    8.5000   35.0000   74.2400   -5.6451 
9651.0000    8.9110   35.0937   18.2988    1.0000    0.1250    1.0000    0.1948    2.0000    0.4204    0.1881   83.0562    8.5000   35.0000   74.6300   -6.1377 
9651.5000    9.0430   34.7291    6.0775    0.0000    0.0966    0.0000    0.2191    2.0000    0.4954    0.1709   94.3040    8.5000   35.0000   73.4400   -5.9313 
9652.0000    9.0690   32.4582    0.1000    0.0000    0.0594    0.0000    0.2773    4.0000    0.5837    0.1469  107.5590    8.5000   35.0000   71.4400   -4.9889 
9652.5000    8.9380   29.4624    0.1000    0.0000    0.0001    0.0000    1.0000    4.0000    0.6353    0.0954  115.2878    8.5000   35.0000   69.5100   -4.2805 
9653.0000    8.6970   26.5099    0.1000    0.0000    0.0001    0.0000    1.0000    4.0000    0.6414    0.0963  116.2131    8.5000   35.0000   67.2100   -4.4651 
9653.5000    8.5980   24.6180    0.1000    0.0000    0.0001    0.0000    1.0000    4.0000    0.6177    0.0928  112.6550    8.5000   35.0000   66.7500   -5.0237 
9654.0000    8.5970   23.6213    0.1000    0.0000    0.0001    0.0000    1.0000    4.0000    0.5909    0.0887  108.6407    8.5000   35.0000   67.4700   -5.7623 
9654.5000    8.5960   22.9475    0.1000    0.0000    0.0543    0.0000    0.3452    4.0000    0.5766    0.1408  106.4902    8.5000   35.0000   70.2500   -6.4780 
9655.0000    8.6140   22.4687    0.7551    0.0000    0.0748    0.0000    0.2957    4.0000    0.5991    0.1647  109.8659    8.5000   35.0000   74.6300   -7.1256 
9655.5000    8.6560   21.9429    1.3691    0.0000    0.0837    0.0000    0.2796    3.0000    0.6260    0.1776  113.8932    8.5000   35.0000   77.3000   -7.4912 
9656.0000    9.1670   21.2139    0.7449    0.0000    0.0729    0.0000    0.3027    4.0000    0.6384    0.1686  115.7570    8.5000   35.0000   76.1100   -7.5898 
9656.5000   10.3100   20.0057    0.1000    0.0000    0.0585    0.0000    0.3461    4.0000    0.6344    0.1537  115.1574    8.5000   35.0000   73.5900   -7.5624 
9657.0000   10.9340   18.5600    0.1000    0.0000    0.0537    0.0000    0.3697    4.0000    0.6538    0.1517  118.0639    8.5000   35.0000   73.6900   -6.9030 
9657.5000   10.2960   17.4198    0.1000    0.0000    0.0001    0.0000    1.0000    4.0000    0.7495    0.1125  132.4267    8.5000   35.0000   72.2900   -5.9806 
9658.0000    9.5520   16.3745    0.1000    0.0000    0.0001    0.0000    1.0000    4.0000    0.8178    0.1228  142.6709    8.5000   35.0000   73.8500   -4.8402 
9658.5000    9.4660   15.8747    0.1000    0.0000    0.0001    0.0000    1.0000    4.0000    0.8926    0.1340  153.8927    8.5000   35.0000   73.6300   -3.8108 
9659.0000   10.3480   15.6976    0.1000    0.0000    0.0001    0.0000    1.0000    4.0000    0.9240    0.1387  158.5977    8.5000   35.0000   72.8000   -3.3124 
9659.5000    8.8110   15.8977    0.1000    0.0000    0.0001    0.0000    1.0000    4.0000    0.9063    0.1360  155.9389    8.5000   35.0000   72.4500   -3.6040 
9660.0000    8.8340   16.4804    0.1000    0.0000    0.0001    0.0000    1.0000    4.0000    0.8763    0.1315  151.4424    8.5000   35.0000   69.9600   -4.3197 
9660.5000    9.2380   17.2806    0.1000    0.0000    0.0001    0.0000    1.0000    4.0000    0.8664    0.1301  149.9566    8.5000   35.0000   71.2200   -4.6083 
9661.0000    9.2160   17.8261    0.1000    0.0000    0.0001    0.0000    1.0000    4.0000    0.8935    0.1341  154.0230    8.5000   35.0000   71.9100   -4.2419 
9661.5000    8.9170   18.1249    0.1000    0.0000    0.0001    0.0000    1.0000    4.0000    0.9233    0.1386  158.4935    8.5000   35.0000   70.8000   -3.7775 
9662.0000    9.1740   18.3936    0.1000    0.0000    0.0001    0.0000    1.0000    4.0000    0.9442    0.1417  161.6345    8.5000   35.0000   72.1100   -3.7341 
9662.5000   11.7120   17.9102    0.1000    0.0000    0.0001    0.0000    1.0000    4.0000    0.8990    0.1350  154.8572    8.5000   35.0000   70.2000   -4.1187 
9663.0000   12.8800   16.4418    0.1000    0.0000    0.0001    0.0000    1.0000    4.0000    0.8718    0.1309  149.9045    8.5000   35.0000   68.0100   -4.7913 
9663.5000   13.0130   15.0106    0.1000    0.0000    0.0001    0.0000    1.0000    4.0000    0.7601    0.1141  133.2608    8.5000   35.0000   69.7300   -4.8359 
9664.0000   13.1410   14.1773    0.1000    0.0000    0.0001    0.0000    1.0000    4.0000    0.7074    0.1062  125.4017    8.5000   35.0000   69.0500   -3.9415 
9664.5000   12.8520   13.3554    0.1000    0.0000    0.0001    0.0000    1.0000    4.0000    0.6540    0.0982  117.4513    8.5000   35.0000   72.2200   -2.5361 
9665.0000   12.1830   12.3255    5.0587    0.0000    0.0848    0.0000    0.3655    3.0000    0.6572    0.1834  117.9205    8.5000   35.0000   78.8500   -1.4758 
9665.5000   11.2580   11.7512    0.7653    0.0000    0.0565    0.0000    0.4397    4.0000    0.7220    0.1648  127.5782    8.5000   35.0000   79.8500   -1.0124 
9666.0000   10.0900   11.5708    0.1000    0.0000    0.0001    0.0000    1.0000    4.0000    0.7678    0.1153  134.4077    8.5000   35.0000   79.2900   -1.0070 
9666.5000    9.2750   11.4207    0.1000    0.0000    0.0001    0.0000    1.0000    4.0000    0.7992    0.1200  139.0737    8.5000   35.0000   79.6500   -1.0226 
9667.0000    9.5100   11.9259    0.1000    0.0000    0.0001    0.0000    1.0000    4.0000    0.7863    0.1180  137.1578    8.5000   35.0000   81.4600   -1.0092 
9667.5000   11.1630   12.6643    0.1000    0.0000    0.0001    0.0000    1.0000    4.0000    0.7697    0.1156  134.6815    8.5000   35.0000   74.8300   -1.3538 
9668.0000   12.7360   12.6925    0.1000    0.0000    0.0001    0.0000    1.0000    4.0000    0.7581    0.1138  132.9610    8.5000   35.0000   81.4600   -1.8644 
9668.5000    9.6800   11.5811    0.1000    0.0000    0.0001    0.0000    1.0000    4.0000    0.7706    0.1157  134.8248    8.5000   35.0000   84.8900   -2.5680 
9669.0000   10.1370   10.1646    0.1000    0.0000    0.0001    0.0000    1.0000    4.0000    0.7986    0.1199  138.9955    8.5000   35.0000   82.3611   -3.1746 
9669.5000   11.4080    8.2609    0.1000    0.0000    0.0001    0.0000    1.0000    4.0000    0.8347    0.1253  144.3653    8.5000   35.0000   83.0555   -3.6002 
9670.0000   13.4530    6.9345    0.1000    0.0000    0.0001    0.0000    1.0000    4.0000    0.8684    0.1304  149.3962    8.5000   35.0000   83.7500   -3.7928 
9670.5000   10.5020    6.0260    0.1000    0.0000    0.0001    0.0000    1.0000    4.0000    0.9092    0.1365  155.4697    8.5000   35.0000   85.1389   -3.4975 
9671.0000    8.6050    5.6932    0.1000    0.0000    0.0001    0.0000    1.0000    4.0000    0.9219    0.1384  157.3596    8.5000   35.0000   85.1389   -2.7741 
9671.5000    8.4860    5.7267    0.1000    0.0000    0.0001    0.0000    1.0000    4.0000    0.9177    0.1378  156.7340    8.5000   35.0000   83.7500   -2.0397 
9672.0000    8.5590    6.0294    0.1000    0.0000    0.0001    0.0000    1.0000    4.0000    0.9045    0.1358  154.7659    8.5000   35.0000   83.7500   -1.9233 
9672.5000    8.7150    6.5449    0.1000    0.0000    0.0001    0.0000    1.0000    4.0000    0.8826    0.1325  151.5076    8.5000   35.0000   83.7500   -1.6644 
9673.0000    8.8200    7.1090    0.1000    0.0000    0.0001    0.0000    1.0000    4.0000    0.8033    0.1206  139.6863    8.5000   35.0000   84.4444   -1.0892 
9673.5000    8.7890    7.8080    0.1000    0.0000    0.0001    0.0000    1.0000    4.0000    0.7466    0.1121  131.2406    8.5000   35.0000   85.1389   -1.3649 
9674.0000    8.6310    8.6832   15.4474    0.0000    0.0947    0.0000    0.5835    2.0000    0.6812    0.1969  121.5047    8.5000   35.0000   85.1389   -2.1427 
9674.5000    8.5530    9.5667   15.8828    0.0000    0.1021    0.0000    0.5431    2.0000    0.6480    0.1993  116.5520    8.5000   35.0000   81.6666   -2.8235 
