~VERSION INFORMATION
 VERS.                 2.0:   CWLS LOG ASCII STANDARD - VERSION 2.0
 WRAP.                  NO:   SINGLE LINE PER DEPTH STEP
 CREA.                 02/27/2023 11:24:21
#CREATED USING DSPetro VERSION 10ep.5.0.03 BY H225751 ON 02/27/2023 11:24:21
~WELL INFORMATION
#MNEM.UNIT       DATA                          DESCRIPTION MNEMONIC
#---------      ---------------------------   --------------------------
 STRT    .FT        8900.0000                 : START DEPTH
 STOP    .FT        10200.0000                : STOP DEPTH
 STEP    .FT        0.5000                    : STEP VALUE
 NULL    .      -999.0000                     : NULL VALUE
 DATE    .      02/27/2023                    : LAS file Creation Date
 WELL   .      LGA-021                        : Well Name
 COMP   .      PETROPRODUCCION                : Company
 FLD    .      LAGO AGRIO                     : Field
 STATE  .      SUCUMBIOS                      : State
 COUNT  .      ECUADOR                        : Country
 UWI    .      LGA-021                        : Unique Well Identifier (UWI)
 LOC    .      TWP        - Range       - Sec : Location
 PDAT   .      GR                             : Permanent Datum
 LGMEA  .      KB                             : Log Measured from
 DRMEA  .      KB                             : Drill Measured From
 KB     .      986                            : KB Elevation
 DF     .      -999.2500                      : DF Elevation
 GL     .      -999.2500                      : GL Elevation
 RWS    .      0                              : Def_Rw
 WST    .      0                              : Def_Rwt
 UTMZ   .      31                             : UTM Zone
 CNTY   .      LA                             : County
 PROV   .      SUCUMBIOS                      : Province
 MDEC   .      0                              : Magnetic Declination
 SRVC   .      SCH                            : Contractor
 GDAT   .      WGS 84                         : Geodatum
 LONG   .      0                              : Longitude
 LATI   .      0                              : Latitude
 COORDIN.                                     : Grid System
 XCOORD .                                     : X or East-West Coordinate
 YCOORD .                                     : Y or North-South Coordinate
~CURVE INFORMATION
#MNEM              UNIT       API CODE   Curve Type Comments
#----------  --------------- ----------  ---------- -----------
 DEPTH      .FT                        : Depth       
 CALI       .inches                    : Caliper     Caliper
 ILD        .ohm.m                     :             
 KTR        .                          :             Multi-Line Formulae Output Curve
 PayFlag    .                          : PayFlag     
 PHIE       .Dec                       : Phi         
 ResFlag    .                          : ResFlag     
 SW         .Dec                       : Sw          
 TR1        .                          :             Multi-Line Formulae Output Curve
 VCLGR      .Dec                       : Vcl         
 PHIT       .Dec                       : PhiT        
 GR         .API                       : GammaRay    GRn = 1.30334 x GR + -6.4442
 BS         .inch                      : BitSize     Multi-Line Formulae Output Curve
 DTMA       .uSec/ft                   : DTMatx      
 DT         .us/ft                     : Sonic       Sonic Travel Time
 SP         .mV                        : SP          
~A  DEPTH    CALI      ILD       KTR     PayFlag     PHIE    ResFlag      SW       TR1      VCLGR      PHIT       GR        BS       DTMA       DT        SP    
8900.0000   13.8610 -999.0000 -999.0000    0.0000 -999.0000    0.0000 -999.0000 -999.0000 -999.0000 -999.0000   84.2161    8.5000 -999.0000  106.9600   -2.0355 
8900.5000   13.7490 -999.0000 -999.0000    0.0000 -999.0000    0.0000 -999.0000 -999.0000 -999.0000 -999.0000   89.6902    8.5000 -999.0000  102.1400   -1.4755 
8901.0000   13.7640    3.6661 -999.0000    0.0000 -999.0000    0.0000 -999.0000 -999.0000 -999.0000 -999.0000   94.0694    8.5000 -999.0000   88.4200   -1.7255 
8901.5000   13.6760    4.2707 -999.0000    0.0000 -999.0000    0.0000 -999.0000 -999.0000    0.7066 -999.0000   95.7116    8.5000 -999.0000   90.3100   -2.2355 
8902.0000   12.6120    4.5879 -999.0000    0.0000 -999.0000    0.0000 -999.0000 -999.0000    0.6986 -999.0000   94.9687    8.5000 -999.0000  135.3700   -2.3655 
8902.5000   11.8430    4.5874 -999.0000    0.0000 -999.0000    0.0000 -999.0000 -999.0000    0.6788 -999.0000   93.1310    8.5000 -999.0000   50.0000   -3.4555 
8903.0000   11.7910    4.3346 -999.0000    0.0000 -999.0000    0.0000 -999.0000 -999.0000    0.6557 -999.0000   90.9805    8.5000 -999.0000  170.0300   -3.1055 
8903.5000   11.8130    4.0410 -999.0000    0.0000 -999.0000    0.0000 -999.0000 -999.0000    0.6266 -999.0000   88.2695    8.5000 -999.0000  172.9200   -2.9955 
8904.0000   12.0220    3.8967 -999.0000    0.0000 -999.0000    0.0000 -999.0000 -999.0000    0.6331 -999.0000   88.8821    8.5000 -999.0000  168.3200   -3.6155 
8904.5000   12.1510    3.7042 -999.0000    0.0000 -999.0000    0.0000 -999.0000 -999.0000    0.7097 -999.0000   95.9983    8.5000 -999.0000  152.7100   -3.3055 
8905.0000   12.1440    3.4010 -999.0000    0.0000 -999.0000    0.0000 -999.0000 -999.0000    0.7419 -999.0000   98.9960    8.5000 -999.0000  150.4300   -3.1568 
8905.5000   12.1370    3.0333 -999.0000    0.0000 -999.0000    0.0000 -999.0000 -999.0000    0.7593 -999.0000  100.6121    8.5000 -999.0000  149.3000   -3.2843 
8906.0000   12.1400    2.6052 -999.0000    0.0000 -999.0000    0.0000 -999.0000 -999.0000    0.7747 -999.0000  102.0458    8.5000 -999.0000  156.1800   -3.8617 
8906.5000   12.1420    2.3896 -999.0000    0.0000 -999.0000    0.0000 -999.0000 -999.0000    0.7870 -999.0000  103.1928    8.5000 -999.0000  152.8200   -3.9992 
8907.0000   12.1060    2.3686 -999.0000    0.0000 -999.0000    0.0000 -999.0000 -999.0000    0.7909 -999.0000  103.5577    8.5000 -999.0000  147.7600   -3.6567 
8907.5000   11.9790    2.4483 -999.0000    0.0000 -999.0000    0.0000 -999.0000 -999.0000    0.7768 -999.0000  102.2413    8.5000 -999.0000  148.0100   -3.5442 
8908.0000   11.1980    2.5532 -999.0000    0.0000 -999.0000    0.0000 -999.0000 -999.0000    0.7580 -999.0000  100.4949    8.5000 -999.0000   50.0000   -3.8017 
8908.5000   10.9390    2.6167 -999.0000    0.0000 -999.0000    0.0000 -999.0000 -999.0000    0.7583 -999.0000  100.5209    8.5000 -999.0000  146.9200   -3.8492 
8909.0000   10.7820    2.6205 -999.0000    0.0000 -999.0000    0.0000 -999.0000 -999.0000    0.7827 -999.0000  102.7887    8.5000 -999.0000  142.4800   -3.5067 
8909.5000   10.5970    2.6165 -999.0000    0.0000 -999.0000    0.0000 -999.0000 -999.0000    0.8312 -999.0000  107.2983    8.5000 -999.0000  138.3200   -3.4642 
8910.0000   10.5770    2.5777 -999.0000    0.0000 -999.0000    0.0000 -999.0000 -999.0000    0.8890 -999.0000  112.6811    8.5000 -999.0000  133.9200   -3.7517 
8910.5000   10.6900    2.5685 -999.0000    0.0000 -999.0000    0.0000 -999.0000 -999.0000    0.9427 -999.0000  117.6729    8.5000 -999.0000  119.6900   -3.7792 
8911.0000   11.0550    2.5837 -999.0000    0.0000 -999.0000    0.0000 -999.0000 -999.0000    0.9766 -999.0000  120.8270    8.5000 -999.0000  115.6400   -2.8867 
8911.5000   11.6760    2.6313 -999.0000    0.0000 -999.0000    0.0000 -999.0000 -999.0000    0.9814 -999.0000  121.2701    8.5000 -999.0000  114.5700   -2.1942 
8912.0000   12.2770    2.7051 -999.0000    0.0000 -999.0000    0.0000 -999.0000 -999.0000    0.9752 -999.0000  120.6966    8.5000 -999.0000  114.4100   -2.5017 
8912.5000   12.5940    2.8082 -999.0000    0.0000 -999.0000    0.0000 -999.0000 -999.0000    0.9727 -999.0000  120.4620    8.5000 -999.0000  116.6700   -2.4692 
8913.0000   12.6020    2.9283 -999.0000    0.0000 -999.0000    0.0000 -999.0000 -999.0000    0.9716 -999.0000  120.3577    8.5000 -999.0000  116.8800   -2.3367 
8913.5000   12.6030    3.0424 -999.0000    0.0000 -999.0000    0.0000 -999.0000 -999.0000    0.9703 -999.0000  120.2404    8.5000 -999.0000  118.0900   -2.8242 
8914.0000   12.6080    3.1546 -999.0000    0.0000 -999.0000    0.0000 -999.0000 -999.0000    0.9607 -999.0000  119.3411    8.5000 -999.0000  115.0400   -3.3217 
8914.5000   12.5810    3.1977 -999.0000    0.0000 -999.0000    0.0000 -999.0000 -999.0000    0.9162 -999.0000  115.2095    8.5000 -999.0000  112.4000   -3.2592 
8915.0000   12.5580    3.2325 -999.0000    0.0000 -999.0000    0.0000 -999.0000 -999.0000    0.8792 -999.0000  111.7687    8.5000 -999.0000  117.3800   -2.5467 
8915.5000   12.5550    3.2448 -999.0000    0.0000 -999.0000    0.0000 -999.0000 -999.0000    0.8801 -999.0000  111.8469    8.5000 -999.0000  140.3800   -2.3442 
8916.0000   12.6850    3.1580 -999.0000    0.0000 -999.0000    0.0000 -999.0000 -999.0000    0.9162 -999.0000  115.2095    8.5000 -999.0000  116.1700   -2.6917 
8916.5000   12.7220    3.0379 -999.0000    0.0000 -999.0000    0.0000 -999.0000 -999.0000    0.9583 -999.0000  119.1196    8.5000 -999.0000  117.9600   -2.9291 
8917.0000   12.6950    2.9175 -999.0000    0.0000 -999.0000    0.0000 -999.0000 -999.0000    1.0027 -999.0000  123.2512    8.5000 -999.0000  118.5800   -2.7166 
8917.5000   12.6960    2.8506 -999.0000    0.0000 -999.0000    0.0000 -999.0000 -999.0000    1.0134 -999.0000  124.2417    8.5000 -999.0000  119.2900   -2.8941 
8918.0000   12.7110    2.8386 -999.0000    0.0000 -999.0000    0.0000 -999.0000 -999.0000    1.0058 -999.0000  123.5379    8.5000 -999.0000  118.4200   -3.2016 
8918.5000   12.7780    2.8345 -999.0000    0.0000 -999.0000    0.0000 -999.0000 -999.0000    0.9848 -999.0000  121.5829    8.5000 -999.0000  115.2100   -3.6091 
8919.0000   12.8270    2.8645 -999.0000    0.0000 -999.0000    0.0000 -999.0000 -999.0000    0.9658 -999.0000  119.8234    8.5000 -999.0000  108.5500   -3.1566 
8919.5000   11.5490    2.9448 -999.0000    0.0000 -999.0000    0.0000 -999.0000 -999.0000    0.9468 -999.0000  118.0508    8.5000 -999.0000  102.5200   -2.9341 
8920.0000   10.1840    3.0945 -999.0000    0.0000 -999.0000    0.0000 -999.0000 -999.0000    0.9185 -999.0000  115.4181    8.5000 -999.0000   93.9200   -2.9796 
8920.5000   10.0280    3.3258 -999.0000    0.0000 -999.0000    0.0000 -999.0000 -999.0000    0.8867 -999.0000  112.4595    8.5000 -999.0000   86.8300   -3.2871 
8921.0000   10.3170    3.5957 -999.0000    0.0000 -999.0000    0.0000 -999.0000 -999.0000    0.8564 -999.0000  109.6443    8.5000 -999.0000   82.9200   -3.4926 
8921.5000   10.9150    3.8409 -999.0000    0.0000 -999.0000    0.0000 -999.0000 -999.0000    0.8340 -999.0000  107.5590    8.5000 -999.0000   81.1200   -3.5401 
8922.0000   11.8470    4.0210 -999.0000    0.0000 -999.0000    0.0000 -999.0000 -999.0000    0.8141 -999.0000  105.7082    8.5000 -999.0000   78.1500   -3.3436 
8922.5000   12.6240    4.1484 -999.0000    0.0000 -999.0000    0.0000 -999.0000 -999.0000    0.8104 -999.0000  105.3693    8.5000 -999.0000   77.7500   -3.3611 
8923.0000   13.2430    4.3635 -999.0000    0.0000 -999.0000    0.0000 -999.0000 -999.0000    0.8134 -999.0000  105.6430    8.5000 -999.0000   79.1500   -3.1526 
8923.5000   13.7260    4.5341 -999.0000    0.0000 -999.0000    0.0000 -999.0000 -999.0000    0.8221 -999.0000  106.4511    8.5000 -999.0000   79.2500   -2.5631 
8924.0000   13.9440    4.6517 -999.0000    0.0000 -999.0000    0.0000 -999.0000 -999.0000    0.8492 -999.0000  108.9796    8.5000 -999.0000   80.7100   -2.5816 
8924.5000   13.5410    4.6695 -999.0000    0.0000 -999.0000    0.0000 -999.0000 -999.0000    0.8270 -999.0000  106.9073    8.5000 -999.0000   83.6200   -2.4201 
