~VERSION INFORMATION
 VERS.                 2.0:   CWLS LOG ASCII STANDARD - VERSION 2.0
 WRAP.                  NO:   SINGLE LINE PER DEPTH STEP
 CREA.                 02/27/2023 11:24:21
#CREATED USING DSPetro VERSION 10ep.5.0.03 BY H225751 ON 02/27/2023 11:24:21
~WELL INFORMATION
#MNEM.UNIT       DATA                          DESCRIPTION MNEMONIC
#---------      ---------------------------   --------------------------
 STRT    .FT        8900.0000                 : START DEPTH
 STOP    .FT        10200.0000                : STOP DEPTH
 STEP    .FT        0.5000                    : STEP VALUE
 NULL    .      -999.0000                     : NULL VALUE
 DATE    .      02/27/2023                    : LAS file Creation Date
 WELL   .      LGA-021                        : Well Name
 COMP   .      PETROPRODUCCION                : Company
 FLD    .      LAGO AGRIO                     : Field
 STATE  .      SUCUMBIOS                      : State
 COUNT  .      ECUADOR                        : Country
 UWI    .      LGA-021                        : Unique Well Identifier (UWI)
 LOC    .      TWP        - Range       - Sec : Location
 PDAT   .      GR                             : Permanent Datum
 LGMEA  .      KB                             : Log Measured from
 DRMEA  .      KB                             : Drill Measured From
 KB     .      986                            : KB Elevation
 DF     .      -999.2500                      : DF Elevation
 GL     .      -999.2500                      : GL Elevation
 RWS    .      0                              : Def_Rw
 WST    .      0                              : Def_Rwt
 UTMZ   .      31                             : UTM Zone
 CNTY   .      LA                             : County
 PROV   .      SUCUMBIOS                      : Province
 MDEC   .      0                              : Magnetic Declination
 SRVC   .      SCH                            : Contractor
 GDAT   .      WGS 84                         : Geodatum
 LONG   .      0                              : Longitude
 LATI   .      0                              : Latitude
 COORDIN.                                     : Grid System
 XCOORD .                                     : X or East-West Coordinate
 YCOORD .                                     : Y or North-South Coordinate
~CURVE INFORMATION
#MNEM              UNIT       API CODE   Curve Type Comments
#----------  --------------- ----------  ---------- -----------
 DEPTH      .FT                        : Depth       
 CALI       .inches                    : Caliper     Caliper
 ILD        .ohm.m                     :             
 KTR        .                          :             Multi-Line Formulae Output Curve
 PayFlag    .                          : PayFlag     
 PHIE       .Dec                       : Phi         
 ResFlag    .                          : ResFlag     
 SW         .Dec                       : Sw          
 TR1        .                          :             Multi-Line Formulae Output Curve
 VCLGR      .Dec                       : Vcl         
 PHIT       .Dec                       : PhiT        
 GR         .API                       : GammaRay    GRn = 1.30334 x GR + -6.4442
 BS         .inch                      : BitSize     Multi-Line Formulae Output Curve
 DTMA       .uSec/ft                   : DTMatx      
 DT         .us/ft                     : Sonic       Sonic Travel Time
 SP         .mV                        : SP          
~A  DEPTH    CALI      ILD       KTR     PayFlag     PHIE    ResFlag      SW       TR1      VCLGR      PHIT       GR        BS       DTMA       DT        SP    
# ...
9400.0000    8.7260    5.0184    4.5952    0.0000    0.0662    0.0000    0.5158    4.0000    0.6010    0.1563   93.9260    8.5000   55.5000   79.3900   -1.7706 
9400.5000    8.7310    5.1034    5.0189    0.0000    0.0679    0.0000    0.5006    4.0000    0.6142    0.1600   95.6204    8.5000   55.5000   79.9600   -1.8485 
9401.0000    8.7460    5.2870    4.9886    0.0000    0.0678    0.0000    0.4915    4.0000    0.6163    0.1602   95.8810    8.5000   55.5000   80.0000   -1.9514 
9401.5000    8.8620    5.4662    8.0418    0.0000    0.0777    0.0000    0.4565    4.0000    0.6110    0.1694   95.2033    8.5000   55.5000   81.2800   -2.0164 
9402.0000    8.7600    5.6535    9.3942    0.0000    0.0813    0.0000    0.4436    3.0000    0.5985    0.1710   93.6132    8.5000   55.5000   81.4800   -2.1193 
9402.5000    8.8070    5.7767    6.9976    0.0000    0.0747    0.0000    0.4642    4.0000    0.5775    0.1613   90.9153    8.5000   55.5000   80.0300   -2.5382 
9403.0000    9.3130    5.8290    1.1020    0.0000    0.0601    0.0000    0.5186    4.0000    0.5556    0.1434   88.1131    8.5000   55.5000   77.4300   -3.0071 
9403.5000   10.9100    5.8186    1.2964    0.0000    0.0631    0.0000    0.5118    4.0000    0.5478    0.1453   87.1226    8.5000   55.5000   77.6700   -3.4970 
9404.0000   10.8840    5.7717    4.9667    0.0000    0.0677    0.0000    0.4887    4.0000    0.5701    0.1532   89.9769    8.5000   55.5000   78.8600   -3.8969 
9404.5000    9.4090    5.8368    7.4465    0.0000    0.0760    0.0000    0.4493    4.0000    0.6020    0.1663   94.0563    8.5000   55.5000   80.8300   -3.8368 
9405.0000    9.1960    6.0543   16.2529    0.0000    0.0951    0.0000    0.3809    2.0000    0.6593    0.1940  101.3941    8.5000   55.5000   84.9600   -3.7597 
9405.5000    8.9170    6.4502    0.1000    0.0000    0.0001    0.0000    1.0000    4.0000    0.7359    0.1105  111.1953    8.5000   55.5000   87.2100   -4.2106 
9406.0000    9.0580    6.9990    0.1000    0.0000    0.0001    0.0000    1.0000    4.0000    0.7999    0.1201  119.3933    8.5000   55.5000   85.1500   -4.1715 
9406.5000    9.1730    7.5963    0.1000    0.0000    0.0001    0.0000    1.0000    4.0000    0.8403    0.1261  124.5545    8.5000   55.5000   81.2200   -3.5625 
9407.0000   10.1160    8.0942    0.1000    0.0000    0.0001    0.0000    1.0000    4.0000    0.8523    0.1279  126.0924    8.5000   55.5000   74.9100   -2.8704 
9407.5000    9.0540    8.4955    0.1000    0.0000    0.0001    0.0000    1.0000    4.0000    0.8229    0.1235  122.3258    8.5000   55.5000   70.4300   -2.3163 
9408.0000    8.9460    8.7479    0.1000    0.0000    0.0001    0.0000    1.0000    4.0000    0.7523    0.1129  113.2936    8.5000   55.5000   72.3300   -1.9462 
9408.5000    9.3500    8.8457    0.1000    0.0000    0.0001    0.0000    1.0000    4.0000    0.6856    0.1029  104.7568    8.5000   55.5000   72.8000   -1.7321 
9409.0000    9.4130    8.8776    0.1000    0.0000    0.0001    0.0000    1.0000    4.0000    0.6461    0.0970   99.6998    8.5000   55.5000   76.7200   -2.0990 
9409.5000    8.9930    8.7342   14.4363    0.0000    0.0919    0.0000    0.3192    2.0000    0.6759    0.1933  103.5186    8.5000   55.5000   84.9800   -2.9519 
9410.0000    9.0440    8.1786    0.1000    0.0000    0.0001    0.0000    1.0000    4.0000    0.7544    0.1133  114.3233    8.5000   55.5000   90.1700   -3.8458 
9410.5000    8.8930    7.4741    0.1000    0.0000    0.0001    0.0000    1.0000    4.0000    0.8281    0.1243  123.8246    8.5000   55.5000   93.9500   -3.9187 
9411.0000    8.9450    6.4675    0.1000    0.0000    0.0001    0.0000    1.0000    4.0000    0.8655    0.1299  128.6470    8.5000   55.5000   93.6400   -3.9737 
9411.5000    9.1980    5.8563    0.1000    0.0000    0.0001    0.0000    1.0000    4.0000    0.8607    0.1292  128.0344    8.5000   55.5000   88.4900   -4.3686 
9412.0000    9.4350    5.5914    0.1000    0.0000    0.0001    0.0000    1.0000    4.0000    0.8472    0.1272  126.2879    8.5000   55.5000   85.6100   -3.8705 
9412.5000   10.1630    5.5073    0.1000    0.0000    0.0001    0.0000    1.0000    4.0000    0.8254    0.1239  123.4727    8.5000   55.5000   75.3800   -3.0784 
9413.0000   10.3560    5.4354    0.1000    0.0000    0.0001    0.0000    1.0000    4.0000    0.8437    0.1266  125.8318    8.5000   55.5000   71.9100   -3.3933 
9413.5000   10.2660    5.1418    0.1000    0.0000    0.0001    0.0000    1.0000    4.0000    0.8844    0.1328  131.0842    8.5000   55.5000   77.6800   -4.1762 
9414.0000   10.5430    4.8201    0.1000    0.0000    0.0001    0.0000    1.0000    4.0000    0.9105    0.1367  134.4599    8.5000   55.5000   93.1600   -4.6221 
9414.5000   11.3040    4.9549    0.1000    0.0000    0.0001    0.0000    1.0000    4.0000    0.9457    0.1420  138.9955    8.5000   55.5000   97.1400   -4.2150 
9415.0000   11.0880    5.4400    0.1000    0.0000    0.0001    0.0000    1.0000    4.0000    1.0027    0.1501  146.3463    8.5000   55.5000   95.2300   -3.8519 
9415.5000   11.0130    5.9792    0.1000    0.0000    0.0001    0.0000    1.0000    4.0000    1.0930    0.1501  157.9982    8.5000   55.5000   96.0600   -4.1728 
9416.0000   11.0410    6.3442    0.1000    0.0000    0.0001    0.0000    1.0000    4.0000    1.0967    0.1501  158.4804    8.5000   55.5000   87.5700   -4.1298 
9416.5000   10.7570    6.6056    0.1000    0.0000    0.0001    0.0000    1.0000    4.0000    1.0136    0.1501  147.7540    8.5000   55.5000   90.2600   -3.3567 
9417.0000   10.9880    6.8319    0.1000    0.0000    0.0001    0.0000    1.0000    4.0000    0.8828    0.1325  130.8757    8.5000   55.5000   83.8400   -3.5626 
9417.5000   11.0410    7.1772    0.1000    0.0000    0.0001    0.0000    1.0000    4.0000    0.7955    0.1194  119.6148    8.5000   55.5000   78.2700   -3.7985 
9418.0000   10.6810    7.7444    0.1000    0.0000    0.0001    0.0000    1.0000    4.0000    0.6863    0.1031  105.5388    8.5000   55.5000   75.8400   -3.4984 
9418.5000   10.2140    7.8812    0.1000    0.0000    0.0001    0.0000    1.0000    4.0000    0.6395    0.0960   99.4913    8.5000   55.5000   78.0100   -3.7013 
9419.0000    9.8280    7.4306   10.0628    0.0000    0.0829    0.0000    0.3800    3.0000    0.6100    0.1744   95.6855    8.5000   55.5000   82.0400   -4.3072 
9419.5000    9.9530    6.7246    0.1000    0.0000    0.0001    0.0000    1.0000    4.0000    0.7376    0.1107  112.1467    8.5000   55.5000   89.4700   -4.8641 
9420.0000    9.8910    5.9222    0.1000    0.0000    0.0001    0.0000    1.0000    4.0000    0.8854    0.1329  131.2146    8.5000   55.5000   96.2300   -5.0420 
9420.5000    9.8870    5.0335    0.1000    0.0000    0.0001    0.0000    1.0000    4.0000    0.9389    0.1409  138.1223    8.5000   55.5000   99.1600   -5.3690 
9421.0000   10.1530    4.0208    0.1000    0.0000    0.0001    0.0000    1.0000    4.0000    0.9751    0.1464  142.7882    8.5000   55.5000  101.8500   -5.4529 
9421.5000   10.5410    3.4839    0.1000    0.0000    0.0001    0.0000    1.0000    4.0000    0.9706    0.1457  142.2017    8.5000   55.5000  104.5000   -5.3538 
9422.0000   10.6620    3.0115    0.1000    0.0000    0.0001    0.0000    1.0000    4.0000    0.9503    0.1427  139.5950    8.5000   55.5000  104.5000   -5.0407 
9422.5000   10.6190    2.7629    0.1000    0.0000    0.0001    0.0000    1.0000    4.0000    0.9270    0.1392  136.5843    8.5000   55.5000  107.8500   -4.1726 
9423.0000   10.6920    2.6347    0.1000    0.0000    0.0001    0.0000    1.0000    4.0000    0.9315    0.1398  137.1578    8.5000   55.5000  105.6900   -3.1625 
9423.5000   11.0030    2.5585    0.1000    0.0000    0.0001    0.0000    1.0000    4.0000    0.9574    0.1437  140.5074    8.5000   55.5000  100.6200   -2.7754 
9424.0000   11.6030    2.5577    0.1000    0.0000    0.0001    0.0000    1.0000    4.0000    0.9767    0.1466  142.9968    8.5000   55.5000   96.6400   -2.7193 
9424.5000   12.0390    2.6460    0.1000    0.0000    0.0001    0.0000    1.0000    4.0000    0.9742    0.1462  142.6709    8.5000   55.5000   98.8800   -2.9982 
