~VERSION INFORMATION
 VERS.                 2.0:   CWLS LOG ASCII STANDARD - VERSION 2.0
 WRAP.                  NO:   SINGLE LINE PER DEPTH STEP
 CREA.                 02/27/2023 11:24:21
#CREATED USING DSPetro VERSION 10ep.5.0.03 BY H225751 ON 02/27/2023 11:24:21
~WELL INFORMATION
#MNEM.UNIT       DATA                          DESCRIPTION MNEMONIC
#---------      ---------------------------   --------------------------
 STRT    .FT        8900.0000                 : START DEPTH
 STOP    .FT        10200.0000                : STOP DEPTH
 STEP    .FT        0.5000                    : STEP VALUE
 NULL    .      -999.0000                     : NULL VALUE
 DATE    .      02/27/2023                    : LAS file Creation Date
 WELL   .      LGA-021                        : Well Name
 COMP   .      PETROPRODUCCION                : Company
 FLD    .      LAGO AGRIO                     : Field
 STATE  .      SUCUMBIOS                      : State
 COUNT  .      ECUADOR                        : Country
 UWI    .      LGA-021                        : Unique Well Identifier (UWI)
 LOC    .      TWP        - Range       - Sec : Location
 PDAT   .      GR                             : Permanent Datum
 LGMEA  .      KB                             : Log Measured from
 DRMEA  .      KB                             : Drill Measured From
 KB     .      986                            : KB Elevation
 DF     .      -999.2500                      : DF Elevation
 GL     .      -999.2500                      : GL Elevation
 RWS    .      0                              : Def_Rw
 WST    .      0                              : Def_Rwt
 UTMZ   .      31                             : UTM Zone
 CNTY   .      LA                             : County
 PROV   .      SUCUMBIOS                      : Province
 MDEC   .      0                              : Magnetic Declination
 SRVC   .      SCH                            : Contractor
 GDAT   .      WGS 84                         : Geodatum
 LONG   .      0                              : Longitude
 LATI   .      0                              : Latitude
 COORDIN.                                     : Grid System
 XCOORD .                                     : X or East-West Coordinate
 YCOORD .                                     : Y or North-South Coordinate
~CURVE INFORMATION
#MNEM              UNIT       API CODE   Curve Type Comments
#----------  --------------- ----------  ---------- -----------
 DEPTH      .FT                        : Depth       
 CALI       .inches                    : Caliper     Caliper
 ILD        .ohm.m                     :             
 KTR        .                          :             Multi-Line Formulae Output Curve
 PayFlag    .                          : PayFlag     
 PHIE       .Dec                       : Phi         
 ResFlag    .                          : ResFlag     
 SW         .Dec                       : Sw          
 TR1        .                          :             Multi-Line Formulae Output Curve
 VCLGR      .Dec                       : Vcl         
 PHIT       .Dec                       : PhiT        
 GR         .API                       : GammaRay    GRn = 1.30334 x GR + -6.4442
 BS         .inch                      : BitSize     Multi-Line Formulae Output Curve
 DTMA       .uSec/ft                   : DTMatx      
 DT         .us/ft                     : Sonic       Sonic Travel Time
 SP         .mV                        : SP          
~A  DEPTH    CALI      ILD       KTR     PayFlag     PHIE    ResFlag      SW       TR1      VCLGR      PHIT       GR        BS       DTMA       DT        SP    
# ...
9575.0000    8.4190  500.0000    0.1000    0.0000    0.0001    0.0000    1.0000    4.0000    0.7047    0.1058  112.8375    8.5000   55.5000   54.8700   52.7550 
9575.5000    8.4040  500.0000    0.1000    0.0000    0.0001    0.0000    1.0000    4.0000    0.7299    0.1096  116.2653    8.5000   55.5000   54.2500   53.6902 
9576.0000    8.3990  500.0000    0.1000    0.0000    0.0001    0.0000    1.0000    4.0000    0.8497    0.1276  132.5570    8.5000   55.5000   59.4400   54.8455 
9576.5000    8.4060  500.0000    0.1000    0.0000    0.0001    0.0000    1.0000    4.0000    0.9696    0.1455  148.8618    8.5000   55.5000   63.7400   56.0008 
9577.0000    8.4080  500.0000    0.1000    0.0000    0.0001    0.0000    1.0000    4.0000    1.0716    0.1501  162.7424    8.5000   55.5000   64.2100   57.3361 
9577.5000    8.4220  500.0000    0.1000    0.0000    0.0001    0.0000    1.0000    4.0000    1.1058    0.1501  167.3822    8.5000   55.5000   64.7000   58.6414 
9578.0000    8.4430  500.0000    0.1000    0.0000    0.0001    0.0000    1.0000    4.0000    1.0530    0.1501  160.2139    8.5000   55.5000   60.8800   59.8966 
9578.5000    8.4560  500.0000    0.1000    0.0000    0.0001    0.0000    1.0000    4.0000    1.0303    0.1501  157.1250    8.5000   55.5000   59.4700   61.3819 
9579.0000    8.4180  500.0000    0.1000    0.0000    0.0001    0.0000    1.0000    4.0000    1.0088    0.1501  154.1924    8.5000   55.5000   61.0500   63.0772 
9579.5000    8.3530  500.0000    0.1000    0.0000    0.0001    0.0000    1.0000    4.0000    0.9916    0.1488  151.8595    8.5000   55.5000   61.1900   64.6525 
9580.0000    8.3680  500.0000    0.1000    0.0000    0.0001    0.0000    1.0000    4.0000    0.9535    0.1431  146.6722    8.5000   55.5000   62.1100   66.0478 
9580.5000    8.4460  500.0000    0.1000    0.0000    0.0001    0.0000    1.0000    4.0000    0.9577    0.1438  147.2457    8.5000   55.5000   65.6900   67.2130 
9581.0000    8.4570  500.0000    0.1000    0.0000    0.0001    0.0000    1.0000    4.0000    0.9913    0.1488  151.8204    8.5000   55.5000   64.9200   67.9983 
9581.5000    8.4270  500.0000    0.1000    0.0000    0.0001    0.0000    1.0000    4.0000    1.0148    0.1501  155.0135    8.5000   55.5000   62.4600   68.4936 
9582.0000    8.4200  500.0000    0.1000    0.0000    0.0001    0.0000    1.0000    4.0000    0.9534    0.1431  146.6591    8.5000   55.5000   60.2700   68.6589 
9582.5000    8.4410  500.0000    0.1000    0.0000    0.0001    0.0000    1.0000    4.0000    0.8521    0.1279  132.8828    8.5000   55.5000   59.0700   68.8242 
9583.0000    8.4490  500.0000    0.1000    0.0000    0.0001    0.0000    1.0000    4.0000    0.7675    0.1152  121.3744    8.5000   55.5000   61.6500   68.6895 
9583.5000    8.4470  500.0000    0.1000    0.0000    0.0001    0.0000    1.0000    4.0000    0.8897    0.1336  138.0050    8.5000   55.5000   64.3500   68.5947 
9584.0000    8.4460  500.0000    0.1000    0.0000    0.0001    0.0000    1.0000    4.0000    1.0403    0.1501  158.4804    8.5000   55.5000   66.2400   68.4100 
9584.5000    8.4450  500.0000    0.1000    0.0000    0.0001    0.0000    1.0000    4.0000    1.1020    0.1501  166.8739    8.5000   55.5000   65.4200   67.8253 
9585.0000    8.4480  500.0000    0.1000    0.0000    0.0001    0.0000    1.0000    4.0000    0.9844    0.1478  150.8820    8.5000   55.5000   63.9100   67.7606 
9585.5000    8.4460  500.0000    0.1000    0.0000    0.0001    0.0000    1.0000    4.0000    0.9299    0.1396  143.4660    8.5000   55.5000   61.8900   67.8359 
9586.0000    8.4560  500.0000    0.1000    0.0000    0.0001    0.0000    1.0000    4.0000    0.8335    0.1251  130.3544    8.5000   55.5000   62.5500   66.9711 
9586.5000    8.4590  500.0000    0.1000    0.0000    0.0001    0.0000    1.0000    4.0000    0.7366    0.1106  117.1776    8.5000   55.5000   61.6300   66.4564 
9587.0000    8.4660  500.0000    0.1000    0.0000    0.0001    0.0000    1.0000    4.0000    0.7288    0.1094  116.1219    8.5000   55.5000   62.0900   65.8917 
9587.5000    8.4760  500.0000    0.1000    0.0000    0.0001    0.0000    1.0000    4.0000    0.7546    0.1133  119.6279    8.5000   55.5000   62.3000   65.5370 
9588.0000    8.4830  500.0000    0.1000    0.0000    0.0001    0.0000    1.0000    4.0000    0.7513    0.1128  119.1717    8.5000   55.5000   64.0300   65.3522 
9588.5000    8.4820  500.0000    0.1000    0.0000    0.0001    0.0000    1.0000    4.0000    0.7420    0.1114  117.9075    8.5000   55.5000   66.3900   65.0275 
9589.0000    8.4810  500.0000    0.1000    0.0000    0.0001    0.0000    1.0000    4.0000    0.7428    0.1115  118.0248    8.5000   55.5000   66.3000   64.8828 
9589.5000    8.4800  500.0000    0.1000    0.0000    0.0001    0.0000    1.0000    4.0000    0.7617    0.1144  120.5923    8.5000   55.5000   67.4900   65.0181 
9590.0000    8.4790  500.0000    0.1000    0.0000    0.0001    0.0000    1.0000    4.0000    0.8046    0.1208  126.4313    8.5000   55.5000   66.4800   65.4934 
9590.5000    8.4770  500.0000    0.1000    0.0000    0.0001    0.0000    1.0000    4.0000    0.8351    0.1254  130.5759    8.5000   55.5000   65.1500   65.9487 
9591.0000    8.4720  500.0000    0.1000    0.0000    0.0001    0.0000    1.0000    4.0000    0.8438    0.1267  131.7620    8.5000   55.5000   67.0000   66.3139 
9591.5000    8.4670  500.0000    0.1000    0.0000    0.0001    0.0000    1.0000    4.0000    0.7970    0.1196  125.3886    8.5000   55.5000   66.2800   66.5392 
9592.0000    8.4660  500.0000    0.1000    0.0000    0.0001    0.0000    1.0000    4.0000    0.7648    0.1148  121.0094    8.5000   55.5000   65.9200   66.6045 
9592.5000    8.4710  500.0000    0.1000    0.0000    0.0001    0.0000    1.0000    4.0000    0.7607    0.1142  120.4490    8.5000   55.5000   68.5400   66.4698 
9593.0000    8.4750  500.0000    0.1000    0.0000    0.0001    0.0000    1.0000    4.0000    0.7803    0.1171  123.1208    8.5000   55.5000   67.6000   65.9351 
9593.5000    8.4740  500.0000    0.1000    0.0000    0.0001    0.0000    1.0000    4.0000    0.7292    0.1095  116.1740    8.5000   55.5000   66.9300   65.1103 
9594.0000    8.4700  500.0000    0.1000    0.0000    0.0001    0.0000    1.0000    4.0000    0.6882    0.1033  110.5957    8.5000   55.5000   66.8100   64.0856 
9594.5000    8.4490  500.0000    0.1000    0.0000    0.0001    0.0000    1.0000    4.0000    0.6277    0.0943  102.3717    8.5000   55.5000   65.2800   62.9309 
9595.0000    8.4250  500.0000    0.1000    0.0000    0.0001    0.0000    1.0000    4.0000    0.5854    0.0879   96.6109    8.5000   55.5000   66.5100   61.6462 
9595.5000    8.3890  500.0000    0.1000    0.0000    0.0001    0.0000    1.0000    4.0000    0.6849    0.1028  110.1526    8.5000   55.5000   67.3200   60.4915 
9596.0000    8.3900  500.0000    0.1000    0.0000    0.0001    0.0000    1.0000    4.0000    0.7938    0.1192  124.9585    8.5000   55.5000   68.5600   59.2967 
9596.5000    8.4650  500.0000    0.1000    0.0000    0.0001    0.0000    1.0000    4.0000    0.8371    0.1257  130.8496    8.5000   55.5000   66.0800   58.2720 
9597.0000    8.4930  500.0000    0.1000    0.0000    0.0001    0.0000    1.0000    4.0000    0.8250    0.1238  129.1944    8.5000   55.5000   66.9100   57.3373 
9597.5000    8.4920  500.0000    0.1000    0.0000    0.0001    0.0000    1.0000    4.0000    0.7700    0.1156  121.7262    8.5000   55.5000   65.9000   56.4426 
9598.0000    8.4910  500.0000    0.1000    0.0000    0.0001    0.0000    1.0000    4.0000    0.7169    0.1076  114.4927    8.5000   55.5000   64.8400   55.4079 
9598.5000    8.4780  500.0000    0.1000    0.0000    0.0001    0.0000    1.0000    4.0000    0.6771    0.1017  109.0839    8.5000   55.5000   66.5000   54.4831 
9599.0000    8.5010  500.0000    0.1000    0.0000    0.0001    0.0000    1.0000    4.0000    0.6610    0.0992  106.8942    8.5000   55.5000   66.7500   53.3984 
9599.5000    8.5140  500.0000    0.1000    0.0000    0.0001    0.0000    1.0000    4.0000    0.6595    0.0990  106.6857    8.5000   55.5000   66.5500   52.4937 
