~VERSION INFORMATION
 VERS.                 2.0:   CWLS LOG ASCII STANDARD - VERSION 2.0
 WRAP.                  NO:   SINGLE LINE PER DEPTH STEP
 CREA.                 02/27/2023 11:24:21
#CREATED USING DSPetro VERSION 10ep.5.0.03 BY H225751 ON 02/27/2023 11:24:21
~WELL INFORMATION
#MNEM.UNIT       DATA                          DESCRIPTION MNEMONIC
#---------      ---------------------------   --------------------------
 STRT    .FT        8900.0000                 : START DEPTH
 STOP    .FT        10200.0000                : STOP DEPTH
 STEP    .FT        0.5000                    : STEP VALUE
 NULL    .      -999.0000                     : NULL VALUE
 DATE    .      02/27/2023                    : LAS file Creation Date
 WELL   .      LGA-021                        : Well Name
 COMP   .      PETROPRODUCCION                : Company
 FLD    .      LAGO AGRIO                     : Field
 STATE  .      SUCUMBIOS                      : State
 COUNT  .      ECUADOR                        : Country
 UWI    .      LGA-021                        : Unique Well Identifier (UWI)
 LOC    .      TWP        - Range       - Sec : Location
 PDAT   .      GR                             : Permanent Datum
 LGMEA  .      KB                             : Log Measured from
 DRMEA  .      KB                             : Drill Measured From
 KB     .      986                            : KB Elevation
 DF     .      -999.2500                      : DF Elevation
 GL     .      -999.2500                      : GL Elevation
 RWS    .      0                              : Def_Rw
 WST    .      0                              : Def_Rwt
 UTMZ   .      31                             : UTM Zone
 CNTY   .      LA                             : County
 PROV   .      SUCUMBIOS                      : Province
 MDEC   .      0                              : Magnetic Declination
 SRVC   .      SCH                            : Contractor
 GDAT   .      WGS 84                         : Geodatum
 LONG   .      0                              : Longitude
 LATI   .      0                              : Latitude
 COORDIN.                                     : Grid System
 XCOORD .                                     : X or East-West Coordinate
 YCOORD .                                     : Y or North-South Coordinate
~CURVE INFORMATION
#MNEM              UNIT       API CODE   Curve Type Comments
#----------  --------------- ----------  ---------- -----------
 DEPTH      .FT                        : Depth       
 CALI       .inches                    : Caliper     Caliper
 ILD        .ohm.m                     :             
 KTR        .                          :             Multi-Line Formulae Output Curve
 PayFlag    .                          : PayFlag     
 PHIE       .Dec                       : Phi         
 ResFlag    .                          : ResFlag     
 SW         .Dec                       : Sw          
 TR1        .                          :             Multi-Line Formulae Output Curve
 VCLGR      .Dec                       : Vcl         
 PHIT       .Dec                       : PhiT        
 GR         .API                       : GammaRay    GRn = 1.30334 x GR + -6.4442
 BS         .inch                      : BitSize     Multi-Line Formulae Output Curve
 DTMA       .uSec/ft                   : DTMatx      
 DT         .us/ft                     : Sonic       Sonic Travel Time
 SP         .mV                        : SP          
~A  DEPTH    CALI      ILD       KTR     PayFlag     PHIE    ResFlag      SW       TR1      VCLGR      PHIT       GR        BS       DTMA       DT        SP    
# ...
10075.0000    7.2120  465.0047  166.1594    1.0000    0.1499    1.0000    0.3170    1.0000    0.0824    0.1623   34.7674    8.5000   50.0000   74.3700  -22.7136 
10075.5000    7.2350  495.1227  158.0120    1.0000    0.1483    1.0000    0.3492    1.0000    0.0326    0.1532   26.4521    8.5000   50.0000   72.5900  -24.6006 
10076.0000    7.2820  500.0000  141.2723    1.0000    0.1434    1.0000    0.3565    1.0000    0.0348    0.1486   26.8040    8.5000   50.0000   71.9300  -27.4076 
10076.5000    7.3610  500.0000  129.5520    1.0000    0.1395    1.0000    0.3492    1.0000    0.0526    0.1474   29.7886    8.5000   50.0000   71.9100  -30.5145 
10077.0000    7.4010  500.0000  143.5293    1.0000    0.1437    1.0000    0.3340    1.0000    0.0600    0.1527   31.0268    8.5000   50.0000   72.7700  -32.2915 
10077.5000    7.4620  500.0000  155.9802    1.0000    0.1474    1.0000    0.3285    1.0000    0.0581    0.1561   30.7010    8.5000   50.0000   73.2500  -33.8284 
10078.0000    7.5190  500.0000  357.5609    1.0000    0.1532    1.0000    0.3245    1.0000    0.0489    0.1605   29.1630    8.5000   50.0000   73.8300  -35.2154 
10078.5000    7.5820  500.0000  449.6733    1.0000    0.1645    1.0000    0.3135    1.0000    0.0356    0.1698   26.9474    8.5000   50.0000   75.1000  -35.8224 
10079.0000    7.8200  500.0000  526.6046    1.0000    0.1728    1.0000    0.3076    1.0000    0.0232    0.1763   24.8751    8.5000   50.0000   75.9500  -35.9993 
10079.5000    8.2370  500.0000  458.2893    1.0000    0.1656    1.0000    0.3184    1.0000    0.0259    0.1695   25.3312    8.5000   50.0000   74.9600  -36.6663 
10080.0000    8.1530  500.0000  384.3482    1.0000    0.1569    1.0000    0.3310    1.0000    0.0311    0.1615   26.1914    8.5000   50.0000   73.8200  -37.3633 
10080.5000    8.0500  500.0000  145.6777    1.0000    0.1448    1.0000    0.3563    1.0000    0.0315    0.1495   26.2566    8.5000   50.0000   72.0300  -38.1802 
10081.0000    8.3470  500.0000  123.7015    1.0000    0.1380    1.0000    0.3767    2.0000    0.0271    0.1420   25.5267    8.5000   50.0000   70.8800  -38.8672 
10081.5000    8.3480  500.0000  135.4435    1.0000    0.1419    1.0000    0.3762    1.0000    0.0175    0.1445   23.9236    8.5000   50.0000   71.1600  -39.4742 
10082.0000    7.7510  500.0000  124.7999    1.0000    0.1385    1.0000    0.3891    1.0000    0.0133    0.1405   23.2198    8.5000   50.0000   70.5300  -39.1011 
10082.5000    7.5410  500.0000  104.2988    1.0000    0.1314    1.0000    0.4099    2.0000    0.0129    0.1333   23.1546    8.5000   50.0000   69.4500  -38.1781 
10083.0000    7.5960  500.0000   95.5034    1.0000    0.1279    1.0000    0.4148    2.0000    0.0178    0.1306   23.9758    8.5000   50.0000   69.0900  -37.2050 
10083.5000    7.7170  500.0000   94.9642    1.0000    0.1277    1.0000    0.4112    2.0000    0.0216    0.1309   24.6144    8.5000   50.0000   69.1700  -36.2020 
10084.0000    7.8170  500.0000  111.1652    1.0000    0.1338    1.0000    0.3948    2.0000    0.0203    0.1368   24.3928    8.5000   50.0000   70.0400  -34.9890 
10084.5000    7.8350  500.0000  104.2856    1.0000    0.1313    1.0000    0.4044    2.0000    0.0181    0.1340   24.0149    8.5000   50.0000   69.6000  -33.5759 
10085.0000    7.9530  500.0000  104.1723    1.0000    0.1313    1.0000    0.4050    2.0000    0.0176    0.1339   23.9367    8.5000   50.0000   69.5800  -32.2829 
10085.5000    8.1230  500.0000  126.9015    1.0000    0.1391    1.0000    0.3778    1.0000    0.0231    0.1426   24.8620    8.5000   50.0000   70.9200  -31.1299 
10086.0000    8.2860  489.3598  114.1363    1.0000    0.1346    1.0000    0.3768    2.0000    0.0397    0.1405   27.6251    8.5000   50.0000   70.7600  -30.2068 
10086.5000    8.6210  285.9555  103.9256    1.0000    0.1308    1.0000    0.4558    2.0000    0.0787    0.1426   34.1418    8.5000   50.0000   71.2800  -29.6438 
10087.0000    8.6250  162.8238   68.5028    1.0000    0.1150    1.0000    0.5468    2.0000    0.1548    0.1382   46.8494    8.5000   50.0000   71.1600  -29.6607 
10087.5000    8.6270  113.4663   51.0547    0.0000    0.1046    1.0000    0.5911    2.0000    0.2216    0.1378   58.0060    8.5000   50.0000   71.6300  -30.5877 
10088.0000    8.6450   96.0564   14.5859    0.0000    0.0914    1.0000    0.5881    2.0000    0.2924    0.1353   69.8273    8.5000   50.0000   71.8700  -31.6947 
10088.5000    8.6510   87.8595   12.8878    0.0000    0.0882    1.0000    0.6182    2.0000    0.2972    0.1328   70.6353    8.5000   50.0000   71.5200  -32.0416 
10089.0000    8.6310   85.5000   16.5355    0.0000    0.0952    1.0000    0.6388    2.0000    0.2721    0.1360   66.4386    8.5000   50.0000   71.7500  -32.0586 
10089.5000    8.6290   86.5493   49.8694    0.0000    0.1038    1.0000    0.6499    2.0000    0.2417    0.1401   61.3686    8.5000   50.0000   72.0600  -32.0456 
10090.0000    8.5910   94.6615  154.4557    0.0000    0.1467    1.0000    0.5541    1.0000    0.2018    0.1770   54.7085    8.5000   50.0000   77.1200  -32.2325 
10090.5000    7.8620  125.9231   15.5088    0.0000    0.0947    1.0000    0.6912    2.0000    0.1600    0.1187   47.7226    8.5000   50.0000   68.2600  -32.8695 
10091.0000    7.9420  203.5755   94.0291    1.0000    0.1266    1.0000    0.4929    2.0000    0.1248    0.1454   41.8445    8.5000   50.0000   72.0100  -33.9264 
10091.5000    8.4170  291.4834  166.5844    1.0000    0.1503    1.0000    0.3868    1.0000    0.0966    0.1648   37.1395    8.5000   50.0000   74.7400  -35.0334 
10092.0000    8.6900  353.4433  436.2820    1.0000    0.1627    1.0000    0.3409    1.0000    0.0808    0.1748   34.4937    8.5000   50.0000   76.1500  -35.7304 
10092.5000    8.7010  428.3049  489.7871    1.0000    0.1685    1.0000    0.3066    1.0000    0.0716    0.1793   32.9558    8.5000   50.0000   76.7800  -35.6573 
10093.0000    8.7090  407.4955   93.6033    1.0000    0.1266    1.0000    0.4040    2.0000    0.0673    0.1367   32.2389    8.5000   50.0000   70.4000  -35.0443 
10093.5000    8.7450  260.1199   12.2459    0.0000    0.0893    1.0000    0.6709    2.0000    0.0665    0.0993   32.1086    8.5000   50.0000   64.7100  -34.1813 
10094.0000    8.7080  219.3825  546.3126    1.0000    0.1748    1.0000    0.4008    1.0000    0.0889    0.1881   35.8492    8.5000   50.0000   78.0400  -33.4082 
10094.5000    8.7270  191.2818  399.3507    1.0000    0.1583    1.0000    0.4249    1.0000    0.1322    0.1781   43.0697    8.5000   50.0000   76.9100  -33.0352 
10095.0000    8.7440  165.9951  118.4018    1.0000    0.1349    1.0000    0.4447    2.0000    0.1976    0.1645   54.0047    8.5000   50.0000   75.4500  -32.6521 
10095.5000    8.6280  161.5186   13.3402    1.0000    0.0893    1.0000    0.5089    2.0000    0.2441    0.1259   61.7596    8.5000   50.0000   70.1900  -31.9091 
10096.0000    8.1080  159.7920    0.1000    0.0000    0.0001    0.0000    1.0000    4.0000    0.2943    0.0442   70.1531    8.5000   50.0000   60.4300  -31.7161 
10096.5000    8.1980  154.6000    0.1000    0.0000    0.0001    0.0000    1.0000    4.0000    0.3986    0.0599   87.5657    8.5000   50.0000   54.6000  -31.6230 
10097.0000    8.3590  146.2781    4.9056    0.0000    0.0653    0.0000    0.6014    4.0000    0.5014    0.1405  104.7307    8.5000   50.0000   74.3900  -30.3400 
10097.5000    8.4040  138.3525    1.3587    0.0000    0.0612    0.0000    0.5554    4.0000    0.5680    0.1464  115.8612    8.5000   50.0000   75.8300  -28.8470 
10098.0000    8.4170  152.4418   16.3888    0.0000    0.0937    0.0000    0.5545    2.0000    0.5294    0.1731  109.4097    8.5000   50.0000   79.3400  -27.1039 
10098.5000    8.4590  176.0681   76.3435    0.0000    0.1176    0.0000    0.5703    2.0000    0.4665    0.1876   98.9048    8.5000   50.0000   80.8600  -25.2609 
10099.0000    8.4890  194.9825  131.1878    0.0000    0.1403    1.0000    0.6381    1.0000    0.3842    0.1980   85.1676    8.5000   50.0000   81.5600  -23.4878 
10099.5000    8.4670  199.3693  494.7188    0.0000    0.1739    1.0000    0.8493    1.0000    0.2708    0.2145   66.2170    8.5000   50.0000   82.5700  -20.8648 
