~VERSION INFORMATION
 VERS.                 2.0:   CWLS LOG ASCII STANDARD - VERSION 2.0
 WRAP.                  NO:   SINGLE LINE PER DEPTH STEP
 CREA.                 02/27/2023 11:24:21
#CREATED USING DSPetro VERSION 10ep.5.0.03 BY H225751 ON 02/27/2023 11:24:21
~WELL INFORMATION
#MNEM.UNIT       DATA                          DESCRIPTION MNEMONIC
#---------      ---------------------------   --------------------------
 STRT    .FT        8900.0000                 : START DEPTH
 STOP    .FT        10200.0000                : STOP DEPTH
 STEP    .FT        0.5000                    : STEP VALUE
 NULL    .      -999.0000                     : NULL VALUE
 DATE    .      02/27/2023                    : LAS file Creation Date
 WELL   .      LGA-021                        : Well Name
 COMP   .      PETROPRODUCCION                : Company
 FLD    .      LAGO AGRIO                     : Field
 STATE  .      SUCUMBIOS                      : State
 COUNT  .      ECUADOR                        : Country
 UWI    .      LGA-021                        : Unique Well Identifier (UWI)
 LOC    .      TWP        - Range       - Sec : Location
 PDAT   .      GR                             : Permanent Datum
 LGMEA  .      KB                             : Log Measured from
 DRMEA  .      KB                             : Drill Measured From
 KB     .      986                            : KB Elevation
 DF     .      -999.2500                      : DF Elevation
 GL     .      -999.2500                      : GL Elevation
 RWS    .      0                              : Def_Rw
 WST    .      0                              : Def_Rwt
 UTMZ   .      31                             : UTM Zone
 CNTY   .      LA                             : County
 PROV   .      SUCUMBIOS                      : Province
 MDEC   .      0                              : Magnetic Declination
 SRVC   .      SCH                            : Contractor
 GDAT   .      WGS 84                         : Geodatum
 LONG   .      0                              : Longitude
 LATI   .      0                              : Latitude
 COORDIN.                                     : Grid System
 XCOORD .                                     : X or East-West Coordinate
 YCOORD .                                     : Y or North-South Coordinate
~CURVE INFORMATION
#MNEM              UNIT       API CODE   Curve Type Comments
#----------  --------------- ----------  ---------- -----------
 DEPTH      .FT                        : Depth       
 CALI       .inches                    : Caliper     Caliper
 ILD        .ohm.m                     :             
 KTR        .                          :             Multi-Line Formulae Output Curve
 PayFlag    .                          : PayFlag     
 PHIE       .Dec                       : Phi         
 ResFlag    .                          : ResFlag     
 SW         .Dec                       : Sw          
 TR1        .                          :             Multi-Line Formulae Output Curve
 VCLGR      .Dec                       : Vcl         
 PHIT       .Dec                       : PhiT        
 GR         .API                       : GammaRay    GRn = 1.30334 x GR + -6.4442
 BS         .inch                      : BitSize     Multi-Line Formulae Output Curve
 DTMA       .uSec/ft                   : DTMatx      
 DT         .us/ft                     : Sonic       Sonic Travel Time
 SP         .mV                        : SP          
~A  DEPTH    CALI      ILD       KTR     PayFlag     PHIE    ResFlag      SW       TR1      VCLGR      PHIT       GR        BS       DTMA       DT        SP    
# ...
10150.0000    6.9610  132.6992    0.1000    0.0000    0.0001    0.0000    1.0000    4.0000    0.5353    0.0804  110.4002    8.5000   48.0000   70.3700   -2.9972 
10150.5000    7.0160  124.4466    0.1000    0.0000    0.0001    0.0000    1.0000    4.0000    0.5711    0.0858  116.3695    8.5000   48.0000   69.8900   -4.9507 
10151.0000    6.9330  113.3566    0.1000    0.0000    0.0001    0.0000    1.0000    4.0000    0.6016    0.0903  121.4656    8.5000   48.0000   70.2300   -6.6642 
10151.5000    6.9200  105.2311    0.1000    0.0000    0.0001    0.0000    1.0000    4.0000    0.6263    0.0940  125.5841    8.5000   48.0000   70.4100   -7.1077 
10152.0000    6.9140  107.1570    0.1000    0.0000    0.0001    0.0000    1.0000    4.0000    0.6168    0.0926  124.0071    8.5000   48.0000   70.1800   -6.8811 
10152.5000    6.8980  113.8308    0.1000    0.0000    0.0001    0.0000    1.0000    4.0000    0.5996    0.0900  121.1397    8.5000   48.0000   70.7300   -6.7446 
10153.0000    6.8750  117.3498    0.1000    0.0000    0.0001    0.0000    1.0000    4.0000    0.5828    0.0875  118.3245    8.5000   48.0000   70.4600   -6.8481 
10153.5000    6.8500  113.0191    0.1000    0.0000    0.0001    0.0000    1.0000    4.0000    0.5972    0.0897  120.7357    8.5000   48.0000   70.8200   -7.4416 
10154.0000    6.8340  104.2141    0.1000    0.0000    0.0001    0.0000    1.0000    4.0000    0.6218    0.0934  124.8412    8.5000   48.0000   70.6300   -8.2550 
10154.5000    6.8220   97.0055    0.1000    0.0000    0.0001    0.0000    1.0000    4.0000    0.6386    0.0959  127.6434    8.5000   48.0000   70.0900   -9.4685 
10155.0000    6.8150   89.3691    0.1000    0.0000    0.0001    0.0000    1.0000    4.0000    0.6420    0.0964  128.2169    8.5000   48.0000   71.2300  -10.4920 
10155.5000    6.8140   80.9822    0.1000    0.0000    0.0001    0.0000    1.0000    4.0000    0.6506    0.0977  129.6506    8.5000   48.0000   73.0100  -11.0855 
10156.0000    6.7990   70.7863    0.1000    0.0000    0.0001    0.0000    1.0000    4.0000    0.6580    0.0988  130.8887    8.5000   48.0000   72.9800  -12.6689 
10156.5000    6.7460   60.1639    0.1000    0.0000    0.0001    0.0000    1.0000    4.0000    0.6295    0.0945  126.1185    8.5000   48.0000   73.0400  -13.7924 
10157.0000    6.6810   50.5309    0.1000    0.0000    0.0001    0.0000    1.0000    4.0000    0.6248    0.0938  125.3365    8.5000   48.0000   72.6100  -14.8859 
10157.5000    6.6330   49.0985    0.1000    0.0000    0.0001    0.0000    1.0000    4.0000    0.6273    0.0942  125.7666    8.5000   48.0000   73.1900  -16.4894 
10158.0000    6.6050   39.2751    0.1000    0.0000    0.0001    0.0000    1.0000    4.0000    0.6177    0.0928  124.1635    8.5000   48.0000   72.1800  -17.5328 
10158.5000    6.5910   34.4554    0.1000    0.0000    0.0001    0.0000    1.0000    4.0000    0.5946    0.0893  120.2926    8.5000   48.0000   73.0100  -18.0963 
10159.0000    6.5700   30.8953    1.0710    0.0000    0.0551    0.0000    0.6235    4.0000    0.5808    0.1422  117.9857    8.5000   48.0000   74.5700  -18.5698 
10159.5000    6.5600   25.4745    5.7094    0.0000    0.0661    0.0000    0.6501    4.0000    0.5724    0.1519  116.5911    8.5000   48.0000   75.8700  -19.5033 
10160.0000    7.0610   21.9067    1.2524    0.0000    0.0580    0.0000    0.7257    4.0000    0.5840    0.1456  118.5331    8.5000   48.0000   75.0300  -20.0767 
10160.5000    7.1360   18.3660    0.1000    0.0000    0.0001    0.0000    1.0000    4.0000    0.5947    0.0893  120.3186    8.5000   48.0000   73.2800  -20.3002 
10161.0000    7.1680   16.3777    0.1000    0.0000    0.0001    0.0000    1.0000    4.0000    0.5978    0.0898  120.8270    8.5000   48.0000   71.6500  -20.4137 
10161.5000    7.1750   15.2831    0.1000    0.0000    0.0001    0.0000    1.0000    4.0000    0.5954    0.0894  120.4359    8.5000   48.0000   73.1900  -20.5572 
10162.0000    7.1820   14.5776    0.1000    0.0000    0.0001    0.0000    1.0000    4.0000    0.6002    0.0901  121.2310    8.5000   48.0000   72.8000  -20.7506 
10162.5000    7.1820   14.0451    0.1000    0.0000    0.0001    0.0000    1.0000    4.0000    0.6064    0.0911  122.2737    8.5000   48.0000   71.8400  -20.9641 
10163.0000    7.1880   13.7707    0.1000    0.0000    0.0001    0.0000    1.0000    4.0000    0.6090    0.0915  122.7038    8.5000   48.0000   71.0400  -21.2376 
10163.5000    7.1950   13.6642    0.1000    0.0000    0.0001    0.0000    1.0000    4.0000    0.6099    0.0916  122.8602    8.5000   48.0000   71.2400  -21.4111 
10164.0000    7.1930   13.7252    0.1000    0.0000    0.0001    0.0000    1.0000    4.0000    0.6108    0.0917  123.0035    8.5000   48.0000   72.1900  -21.2945 
10164.5000    7.1920   14.1434    0.1000    0.0000    0.0001    0.0000    1.0000    4.0000    0.6083    0.0913  122.5865    8.5000   48.0000   73.0200  -20.9780 
10165.0000    7.1860   14.8417    0.1000    0.0000    0.0001    0.0000    1.0000    4.0000    0.6063    0.0910  122.2476    8.5000   48.0000   73.3000  -20.4115 
10165.5000    7.1850   15.7903    0.1000    0.0000    0.0001    0.0000    1.0000    4.0000    0.6064    0.0911  122.2606    8.5000   48.0000   72.5200  -19.8450 
10166.0000    7.1760   16.9022    0.1000    0.0000    0.0001    0.0000    1.0000    4.0000    0.5994    0.0900  121.1006    8.5000   48.0000   72.1000  -19.4084 
10166.5000    7.1700   17.9869    0.1000    0.0000    0.0001    0.0000    1.0000    4.0000    0.5918    0.0889  119.8364    8.5000   48.0000   72.7800  -19.1819 
10167.0000    7.1610   18.8401    0.1000    0.0000    0.0001    0.0000    1.0000    4.0000    0.5860    0.0880  118.8589    8.5000   48.0000   72.5400  -19.0854 
10167.5000    7.1600   19.5902    0.1000    0.0000    0.0001    0.0000    1.0000    4.0000    0.5886    0.0884  119.3020    8.5000   48.0000   71.4300  -18.8789 
10168.0000    7.1470   20.3849    0.1000    0.0000    0.0001    0.0000    1.0000    4.0000    0.6095    0.0915  122.7820    8.5000   48.0000   71.2200  -18.7023 
10168.5000    7.1350   21.6671    0.1000    0.0000    0.0001    0.0000    1.0000    4.0000    0.6251    0.0939  125.3886    8.5000   48.0000   70.6400  -18.3358 
10169.0000    7.1280   23.7580    0.1000    0.0000    0.0001    0.0000    1.0000    4.0000    0.6116    0.0918  123.1339    8.5000   48.0000   70.7200  -17.2393 
10169.5000    7.1280   25.3781    0.1000    0.0000    0.0001    0.0000    1.0000    4.0000    0.6028    0.0905  121.6611    8.5000   48.0000   71.6600  -15.4427 
10170.0000    7.1600   26.4854    0.1000    0.0000    0.0001    0.0000    1.0000    4.0000    0.5974    0.0897  120.7618    8.5000   48.0000   70.9300  -15.8362 
10170.5000    7.2100   26.9132    0.1000    0.0000    0.0001    0.0000    1.0000    4.0000    0.5877    0.0883  119.1456    8.5000   48.0000   70.7600  -15.5497 
10171.0000    7.3010   26.7564    0.1000    0.0000    0.0001    0.0000    1.0000    4.0000    0.5821    0.0874  118.2072    8.5000   48.0000   71.3900  -14.8532 
10171.5000    7.3100   26.1372    0.1000    0.0000    0.0001    0.0000    1.0000    4.0000    0.5802    0.0871  117.8944    8.5000   48.0000   71.3600  -15.3966 
10172.0000    7.2850   25.1019    0.1000    0.0000    0.0001    0.0000    1.0000    4.0000    0.5801    0.0871  117.8684    8.5000   48.0000   72.9900  -14.7501 
10172.5000    7.3160   23.7643    0.6640    0.0000    0.0001    0.0000    1.0000    4.0000    0.5814    0.0873  118.0899    8.5000   48.0000   73.3500  -14.4036 
10173.0000    7.2950   22.1393 -999.0000    0.0000 -999.0000    0.0000 -999.0000 -999.0000    0.5970 -999.0000  120.6966    8.5000 -999.0000 -999.0000  -14.8771 
10173.5000    7.2520   20.2558 -999.0000    0.0000 -999.0000    0.0000 -999.0000 -999.0000    0.6187 -999.0000  124.3199    8.5000 -999.0000 -999.0000  -14.2905 
10174.0000    7.1920   19.0381 -999.0000    0.0000 -999.0000    0.0000 -999.0000 -999.0000    0.6252 -999.0000  125.4017    8.5000 -999.0000 -999.0000  -13.4540 
10174.5000    7.0730   18.1249 -999.0000    0.0000 -999.0000    0.0000 -999.0000 -999.0000    0.6198 -999.0000  124.5024    8.5000 -999.0000 -999.0000  -13.4675 
