~VERSION INFORMATION
 VERS.                 2.0:   CWLS LOG ASCII STANDARD - VERSION 2.0
 WRAP.                  NO:   SINGLE LINE PER DEPTH STEP
 CREA.                 02/27/2023 11:24:21
#CREATED USING DSPetro VERSION 10ep.5.0.03 BY H225751 ON 02/27/2023 11:24:21
~WELL INFORMATION
#MNEM.UNIT       DATA                          DESCRIPTION MNEMONIC
#---------      ---------------------------   --------------------------
 STRT    .FT        8900.0000                 : START DEPTH
 STOP    .FT        10200.0000                : STOP DEPTH
 STEP    .FT        0.5000                    : STEP VALUE
 NULL    .      -999.0000                     : NULL VALUE
 DATE    .      02/27/2023                    : LAS file Creation Date
 WELL   .      LGA-021                        : Well Name
 COMP   .      PETROPRODUCCION                : Company
 FLD    .      LAGO AGRIO                     : Field
 STATE  .      SUCUMBIOS                      : State
 COUNT  .      ECUADOR                        : Country
 UWI    .      LGA-021                        : Unique Well Identifier (UWI)
 LOC    .      TWP        - Range       - Sec : Location
 PDAT   .      GR                             : Permanent Datum
 LGMEA  .      KB                             : Log Measured from
 DRMEA  .      KB                             : Drill Measured From
 KB     .      986                            : KB Elevation
 DF     .      -999.2500                      : DF Elevation
 GL     .      -999.2500                      : GL Elevation
 RWS    .      0                              : Def_Rw
 WST    .      0                              : Def_Rwt
 UTMZ   .      31                             : UTM Zone
 CNTY   .      LA                             : County
 PROV   .      SUCUMBIOS                      : Province
 MDEC   .      0                              : Magnetic Declination
 SRVC   .      SCH                            : Contractor
 GDAT   .      WGS 84                         : Geodatum
 LONG   .      0                              : Longitude
 LATI   .      0                              : Latitude
 COORDIN.                                     : Grid System
 XCOORD .                                     : X or East-West Coordinate
 YCOORD .                                     : Y or North-South Coordinate
~CURVE INFORMATION
#MNEM              UNIT       API CODE   Curve Type Comments
#----------  --------------- ----------  ---------- -----------
 DEPTH      .FT                        : Depth       
 CALI       .inches                    : Caliper     Caliper
 ILD        .ohm.m                     :             
 KTR        .                          :             Multi-Line Formulae Output Curve
 PayFlag    .                          : PayFlag     
 PHIE       .Dec                       : Phi         
 ResFlag    .                          : ResFlag     
 SW         .Dec                       : Sw          
 TR1        .                          :             Multi-Line Formulae Output Curve
 VCLGR      .Dec                       : Vcl         
 PHIT       .Dec                       : PhiT        
 GR         .API                       : GammaRay    GRn = 1.30334 x GR + -6.4442
 BS         .inch                      : BitSize     Multi-Line Formulae Output Curve
 DTMA       .uSec/ft                   : DTMatx      
 DT         .us/ft                     : Sonic       Sonic Travel Time
 SP         .mV                        : SP          
~A  DEPTH    CALI      ILD       KTR     PayFlag     PHIE    ResFlag      SW       TR1      VCLGR      PHIT       GR        BS       DTMA       DT        SP    
# ...
9475.0000   10.2610    3.6929    0.1000    0.0000    0.0001    0.0000    1.0000    4.0000    0.8629    0.1295  128.3081    8.5000   55.5000   92.4400   -3.5083 
9475.5000   10.1100    3.3566    0.1000    0.0000    0.0001    0.0000    1.0000    4.0000    0.8425    0.1265  125.6884    8.5000   55.5000   92.5500   -3.0243 
9476.0000    9.7600    3.0674    0.1000    0.0000    0.0001    0.0000    1.0000    4.0000    0.8350    0.1253  124.7109    8.5000   55.5000   92.6500   -2.5133 
9476.5000    9.5670    2.8620    0.1000    0.0000    0.0001    0.0000    1.0000    4.0000    0.8256    0.1239  123.4988    8.5000   55.5000   91.8000   -2.0983 
9477.0000   10.3740    2.6628    0.1000    0.0000    0.0001    0.0000    1.0000    4.0000    0.8080    0.1213  121.2310    8.5000   55.5000   91.3800   -1.7243 
9477.5000    9.3390    2.5612    0.1000    0.0000    0.0001    0.0000    1.0000    4.0000    0.7869    0.1181  118.5070    8.5000   55.5000   91.0200   -1.5013 
9478.0000    8.9900    2.4422    0.1000    0.0000    0.0001    0.0000    1.0000    4.0000    0.7686    0.1154  116.1480    8.5000   55.5000   93.4600   -1.4923 
9478.5000    8.9060    2.3400    0.1000    0.0000    0.0001    0.0000    1.0000    4.0000    0.7332    0.1101  111.5863    8.5000   55.5000   93.4600   -1.5613 
9479.0000    8.9780    2.2379    1.0343    0.0000    0.0589    0.0000    0.7404    4.0000    0.7190    0.1668  109.7486    8.5000   55.5000   94.6000   -1.2253 
9479.5000    9.5980    2.0962    0.8252    0.0000    0.0550    0.0000    0.7816    4.0000    0.7239    0.1636  110.3872    8.5000   55.5000   91.7800   -1.0883 
9480.0000    9.0850    1.9925    0.1000    0.0000    0.0001    0.0000    1.0000    4.0000    0.7501    0.1126  113.7628    8.5000   55.5000   89.7300   -1.5293 
9480.5000    8.8360    2.0216    0.1000    0.0000    0.0001    0.0000    1.0000    4.0000    0.7593    0.1140  114.9489    8.5000   55.5000   88.5000   -1.6413 
9481.0000    8.8370    2.1937    0.1000    0.0000    0.0001    0.0000    1.0000    4.0000    0.7409    0.1112  112.5768    8.5000   55.5000   87.8700   -1.1333 
9481.5000    8.8620    2.4673    0.1000    0.0000    0.0001    0.0000    1.0000    4.0000    0.7434    0.1116  112.9026    8.5000   55.5000   87.8400   -0.9173 
9482.0000    8.9030    2.9490    0.1000    0.0000    0.0001    0.0000    1.0000    4.0000    0.7801    0.1171  117.6338    8.5000   55.5000   88.9000   -0.5283 
9482.5000    8.9570    3.5299    0.1000    0.0000    0.0001    0.0000    1.0000    4.0000    0.8328    0.1250  124.4372    8.5000   55.5000   89.3100   -0.2993 
9483.0000    8.9760    4.1750    0.1000    0.0000    0.0001    0.0000    1.0000    4.0000    0.8637    0.1296  128.4124    8.5000   55.5000   89.2900   -0.5433 
9483.5000    9.0380    4.9763    0.1000    0.0000    0.0001    0.0000    1.0000    4.0000    0.8888    0.1334  131.6577    8.5000   55.5000   90.7600   -0.4843 
9484.0000    9.1370    5.8841    0.1000    0.0000    0.0001    0.0000    1.0000    4.0000    0.8555    0.1284  127.3567    8.5000   55.5000   82.4900   -0.3473 
9484.5000    9.1140    6.9238    0.1000    0.0000    0.0001    0.0000    1.0000    4.0000    0.8175    0.1227  122.4561    8.5000   55.5000   76.5300   -0.4203 
9485.0000    8.9540    8.4156    0.1000    0.0000    0.0001    0.0000    1.0000    4.0000    0.7772    0.1167  117.2558    8.5000   55.5000   69.6600    0.6307 
9485.5000    8.8960   10.7105    0.1000    0.0000    0.0001    0.0000    1.0000    4.0000    0.7576    0.1137  114.7273    8.5000   55.5000   65.2600    1.4057 
9486.0000    8.9760   15.1914    0.1000    0.0000    0.0001    0.0000    1.0000    4.0000    0.8449    0.1268  125.9882    8.5000   55.5000   70.8400    1.5237 
9486.5000    9.0580   19.7742    0.1000    0.0000    0.0001    0.0000    1.0000    4.0000    0.9584    0.1439  147.3369    8.5000   55.5000   73.1700    0.9397 
9487.0000    9.0480   23.4728    0.1000    0.0000    0.0001    0.0000    1.0000    4.0000    1.2378    0.1501  185.3423    8.5000   55.5000   77.3300    0.6877 
9487.5000    9.1100   25.8912    0.1000    0.0000    0.0001    0.0000    1.0000    4.0000    1.6048    0.1501  235.2472    8.5000   55.5000   71.6800    0.1787 
9488.0000    9.1870   29.1826    0.1000    0.0000    0.0001    0.0000    1.0000    4.0000    1.6473    0.1501  241.0340    8.5000   55.5000   61.3400    0.0147 
9488.5000    9.0180   34.6191    0.1000    0.0000    0.0001    0.0000    1.0000    4.0000    1.6168    0.1501  236.8894    8.5000   55.5000   61.0400    0.1317 
9489.0000    8.8220   40.8430    0.1000    0.0000    0.0001    0.0000    1.0000    4.0000    1.5775    0.1501  231.5457    8.5000   55.5000   63.1500    0.2747 
9489.5000    8.7990  159.6003    0.1000    0.0000    0.0001    0.0000    1.0000    4.0000    1.5411    0.1501  226.5930    8.5000   55.5000   65.6500    0.3297 
9490.0000    8.8090  359.6694    0.1000    0.0000    0.0001    0.0000    1.0000    4.0000    1.5211    0.1501  223.8690    8.5000   55.5000   68.6400    0.3707 
9490.5000    8.7670   45.0302    0.1000    0.0000    0.0001    0.0000    1.0000    4.0000    1.4991    0.1501  220.8713    8.5000   55.5000   69.9900    0.3797 
9491.0000    8.7330   38.7463    0.1000    0.0000    0.0001    0.0000    1.0000    4.0000    1.4560    0.1501  215.0193    8.5000   55.5000   69.0200   -0.1103 
9491.5000    8.4810   31.6256    0.1000    0.0000    0.0001    0.0000    1.0000    4.0000    1.4063    0.1501  208.2550    8.5000   55.5000   64.1700   -0.3033 
9492.0000    8.7340   24.9934    0.1000    0.0000    0.0001    0.0000    1.0000    4.0000    1.4009    0.1501  207.5251    8.5000   55.5000   61.2900   -0.1013 
9492.5000    8.7590   20.0636    0.1000    0.0000    0.0001    0.0000    1.0000    4.0000    1.4503    0.1501  214.2373    8.5000   55.5000   59.6600    0.2687 
9493.0000    8.7730   16.5882    0.1000    0.0000    0.0001    0.0000    1.0000    4.0000    1.5016    0.1501  221.2232    8.5000   55.5000   62.4900    0.3277 
9493.5000    8.7210   14.4095    0.1000    0.0000    0.0001    0.0000    1.0000    4.0000    1.5331    0.1501  225.4982    8.5000   55.5000   68.4500    0.4857 
9494.0000    8.7190   12.7378    0.1000    0.0000    0.0001    0.0000    1.0000    4.0000    1.4884    0.1501  219.4246    8.5000   55.5000   77.8000    0.5187 
9494.5000    8.7330   11.4841    0.1000    0.0000    0.0001    0.0000    1.0000    4.0000    1.4016    0.1501  207.6164    8.5000   55.5000   82.7700    0.2107 
9495.0000    8.7200   10.5876    0.1000    0.0000    0.0001    0.0000    1.0000    4.0000    1.2358    0.1501  185.0686    8.5000   55.5000   90.5600   -0.1423 
9495.5000    8.7760   10.5948    0.1000    0.0000    0.0001    0.0000    1.0000    4.0000    1.1500    0.1501  173.4037    8.5000   55.5000   93.3800   -0.0713 
9496.0000    8.8370   11.7130    0.1000    0.0000    0.0001    0.0000    1.0000    4.0000    0.9515    0.1428  146.3985    8.5000   55.5000   92.4200    0.5707 
9496.5000    8.7960   13.9473    0.1000    0.0000    0.0001    0.0000    1.0000    4.0000    0.9258    0.1390  142.9055    8.5000   55.5000   90.8600    1.4827 
9497.0000    9.1640   16.4535    0.1000    0.0000    0.0001    0.0000    1.0000    4.0000    0.8705    0.1307  135.3853    8.5000   55.5000   88.6300    2.1317 
9497.5000   10.1090   20.8155    0.1000    0.0000    0.0001    0.0000    1.0000    4.0000    0.8048    0.1208  126.4574    8.5000   55.5000   84.5900    2.7377 
9498.0000   10.4370   31.2859    0.9359    0.0000    0.0571    0.0000    0.2734    4.0000    0.7169    0.1647  114.4927    8.5000   55.5000   81.1200    3.4667 
9498.5000   10.1350   40.5455    0.1000    0.0000    0.0001    0.0000    1.0000    4.0000    0.6182    0.0928  101.0813    8.5000   55.5000   75.3700    3.8397 
9499.0000   10.9270   58.5271    0.1000    0.0000    0.0001    0.0000    1.0000    4.0000    0.5399    0.0811   90.4200    8.5000   55.5000   71.7900    3.7137 
9499.5000   11.2590   95.8496    0.1000    0.0000    0.0001    0.0000    1.0000    4.0000    0.4879    0.0733   83.3559    8.5000   55.5000   72.0900    3.8457 
