~VERSION INFORMATION
 VERS.                 2.0:   CWLS LOG ASCII STANDARD - VERSION 2.0
 WRAP.                  NO:   SINGLE LINE PER DEPTH STEP
 CREA.                 02/27/2023 11:24:21
#CREATED USING DSPetro VERSION 10ep.5.0.03 BY H225751 ON 02/27/2023 11:24:21
~WELL INFORMATION
#MNEM.UNIT       DATA                          DESCRIPTION MNEMONIC
#---------      ---------------------------   --------------------------
 STRT    .FT        8900.0000                 : START DEPTH
 STOP    .FT        10200.0000                : STOP DEPTH
 STEP    .FT        0.5000                    : STEP VALUE
 NULL    .      -999.0000                     : NULL VALUE
 DATE    .      02/27/2023                    : LAS file Creation Date
 WELL   .      LGA-021                        : Well Name
 COMP   .      PETROPRODUCCION                : Company
 FLD    .      LAGO AGRIO                     : Field
 STATE  .      SUCUMBIOS                      : State
 COUNT  .      ECUADOR                        : Country
 UWI    .      LGA-021                        : Unique Well Identifier (UWI)
 LOC    .      TWP        - Range       - Sec : Location
 PDAT   .      GR                             : Permanent Datum
 LGMEA  .      KB                             : Log Measured from
 DRMEA  .      KB                             : Drill Measured From
 KB     .      986                            : KB Elevation
 DF     .      -999.2500                      : DF Elevation
 GL     .      -999.2500                      : GL Elevation
 RWS    .      0                              : Def_Rw
 WST    .      0                              : Def_Rwt
 UTMZ   .      31                             : UTM Zone
 CNTY   .      LA                             : County
 PROV   .      SUCUMBIOS                      : Province
 MDEC   .      0                              : Magnetic Declination
 SRVC   .      SCH                            : Contractor
 GDAT   .      WGS 84                         : Geodatum
 LONG   .      0                              : Longitude
 LATI   .      0                              : Latitude
 COORDIN.                                     : Grid System
 XCOORD .                                     : X or East-West Coordinate
 YCOORD .                                     : Y or North-South Coordinate
~CURVE INFORMATION
#MNEM              UNIT       API CODE   Curve Type Comments
#----------  --------------- ----------  ---------- -----------
 DEPTH      .FT                        : Depth       
 CALI       .inches                    : Caliper     Caliper
 ILD        .ohm.m                     :             
 KTR        .                          :             Multi-Line Formulae Output Curve
 PayFlag    .                          : PayFlag     
 PHIE       .Dec                       : Phi         
 ResFlag    .                          : ResFlag     
 SW         .Dec                       : Sw          
 TR1        .                          :             Multi-Line Formulae Output Curve
 VCLGR      .Dec                       : Vcl         
 PHIT       .Dec                       : PhiT        
 GR         .API                       : GammaRay    GRn = 1.30334 x GR + -6.4442
 BS         .inch                      : BitSize     Multi-Line Formulae Output Curve
 DTMA       .uSec/ft                   : DTMatx      
 DT         .us/ft                     : Sonic       Sonic Travel Time
 SP         .mV                        : SP          
~A  DEPTH    CALI      ILD       KTR     PayFlag     PHIE    ResFlag      SW       TR1      VCLGR      PHIT       GR        BS       DTMA       DT        SP    
# ...
9975.0000   10.0670    8.5914    0.1000    0.0000    0.0001    0.0000    1.0000    4.0000    0.8210    0.1232  170.4190    8.5000   55.5000   82.1200   -4.3231 
9975.5000   10.0150    8.6003    0.1000    0.0000    0.0001    0.0000    1.0000    4.0000    0.8362    0.1255  173.1951    8.5000   55.5000   82.2200   -4.4603 
9976.0000    9.7000    8.6490    0.1000    0.0000    0.0001    0.0000    1.0000    4.0000    0.8529    0.1280  176.2189    8.5000   55.5000   80.7300   -4.3075 
9976.5000   10.0830    8.6824    0.1000    0.0000    0.0001    0.0000    1.0000    4.0000    0.8705    0.1307  179.4251    8.5000   55.5000   81.4500   -4.0447 
9977.0000   10.1010    8.6832    0.1000    0.0000    0.0001    0.0000    1.0000    4.0000    0.8869    0.1331  182.4228    8.5000   55.5000   82.3300   -4.0898 
9977.5000    9.9020    8.7169    0.1000    0.0000    0.0001    0.0000    1.0000    4.0000    0.9020    0.1354  185.1729    8.5000   55.5000   82.0300   -4.3660 
9978.0000    9.6720    8.7427    0.1000    0.0000    0.0001    0.0000    1.0000    4.0000    0.9087    0.1364  186.3849    8.5000   55.5000   82.9100   -4.4112 
9978.5000    9.5200    8.7478    0.1000    0.0000    0.0001    0.0000    1.0000    4.0000    0.9033    0.1356  185.3944    8.5000   55.5000   80.6100   -3.9684 
9979.0000    9.9150    8.7678    0.1000    0.0000    0.0001    0.0000    1.0000    4.0000    0.8907    0.1337  183.1005    8.5000   55.5000   80.6600   -3.7196 
9979.5000   10.1900    8.7992    0.1000    0.0000    0.0001    0.0000    1.0000    4.0000    0.8817    0.1324  181.4713    8.5000   55.5000   80.4800   -3.7957 
9980.0000   10.1230    8.8330    0.1000    0.0000    0.0001    0.0000    1.0000    4.0000    0.8701    0.1306  179.3599    8.5000   55.5000   81.4100   -4.0949 
9980.5000    9.8450    8.8804    0.1000    0.0000    0.0001    0.0000    1.0000    4.0000    0.8602    0.1291  177.5483    8.5000   55.5000   79.8500   -4.3521 
9981.0000    9.4350    8.9013    0.1000    0.0000    0.0001    0.0000    1.0000    4.0000    0.8567    0.1286  176.9227    8.5000   55.5000   80.6100   -4.1283 
9981.5000    9.4250    8.8984    0.1000    0.0000    0.0001    0.0000    1.0000    4.0000    0.8609    0.1292  177.6786    8.5000   55.5000   81.2200   -3.7605 
9982.0000    9.3720    8.9351    0.1000    0.0000    0.0001    0.0000    1.0000    4.0000    0.8680    0.1303  178.9820    8.5000   55.5000   81.3800   -3.6466 
9982.5000    9.4520    8.9593    0.1000    0.0000    0.0001    0.0000    1.0000    4.0000    0.8782    0.1318  180.8327    8.5000   55.5000   80.5400   -3.4398 
9983.0000    9.9280    8.9574    0.1000    0.0000    0.0001    0.0000    1.0000    4.0000    0.8856    0.1329  182.1752    8.5000   55.5000   81.6400   -3.3730 
9983.5000    9.8770    8.9354    0.1000    0.0000    0.0001    0.0000    1.0000    4.0000    0.8887    0.1334  182.7486    8.5000   55.5000   80.0900   -3.5212 
9984.0000    9.9250    8.9244    0.1000    0.0000    0.0001    0.0000    1.0000    4.0000    0.8785    0.1319  180.8848    8.5000   55.5000   80.2700   -3.8864 
9984.5000   10.1610    8.9174    0.1000    0.0000    0.0001    0.0000    1.0000    4.0000    0.8531    0.1281  176.2710    8.5000   55.5000   81.1400   -3.8576 
9985.0000   10.0390    8.9295    0.1000    0.0000    0.0001    0.0000    1.0000    4.0000    0.8300    0.1246  172.0612    8.5000   55.5000   81.5300   -3.9437 
9985.5000   10.1950    8.9719    0.1000    0.0000    0.0001    0.0000    1.0000    4.0000    0.8055    0.1209  167.6038    8.5000   55.5000   83.1600   -3.9059 
9986.0000   10.3860    9.0906    0.1000    0.0000    0.0001    0.0000    1.0000    4.0000    0.7841    0.1177  163.7068    8.5000   55.5000   81.9300   -3.4451 
9986.5000    9.2770    9.2657    0.1000    0.0000    0.0001    0.0000    1.0000    4.0000    0.7705    0.1157  161.2305    8.5000   55.5000   81.5700   -3.2623 
9987.0000    9.7520    9.4658    0.1000    0.0000    0.0001    0.0000    1.0000    4.0000    0.7694    0.1155  161.0350    8.5000   55.5000   82.0700   -3.2625 
9987.5000   10.1550    9.8284    0.1000    0.0000    0.0001    0.0000    1.0000    4.0000    0.7760    0.1165  162.2341    8.5000   55.5000   82.7000   -3.2246 
9988.0000   10.2380   10.2728    0.1000    0.0000    0.0001    0.0000    1.0000    4.0000    0.7861    0.1180  164.0718    8.5000   55.5000   81.2000   -2.8278 
9988.5000   10.2860   10.7167    0.1000    0.0000    0.0001    0.0000    1.0000    4.0000    0.7916    0.1188  165.0753    8.5000   55.5000   79.9700   -2.6560 
9989.0000   10.4000   11.0760    0.1000    0.0000    0.0001    0.0000    1.0000    4.0000    0.7845    0.1178  163.7720    8.5000   55.5000   80.9100   -2.2292 
9989.5000   10.0590   11.2396    0.1000    0.0000    0.0001    0.0000    1.0000    4.0000    0.7747    0.1163  161.9864    8.5000   55.5000   79.5600   -1.9683 
9990.0000    9.9570   11.1815    0.1000    0.0000    0.0001    0.0000    1.0000    4.0000    0.7659    0.1150  160.3963    8.5000   55.5000   80.7400   -2.0783 
9990.5000    9.9510   11.1005    0.1000    0.0000    0.0001    0.0000    1.0000    4.0000    0.7767    0.1166  162.3513    8.5000   55.5000   80.8700   -2.1083 
9991.0000    9.6940   11.0438    0.1000    0.0000    0.0001    0.0000    1.0000    4.0000    0.7917    0.1189  165.0884    8.5000   55.5000   81.0100   -2.2303 
9991.5000    9.5790   10.9989    0.1000    0.0000    0.0001    0.0000    1.0000    4.0000    0.8059    0.1210  167.6690    8.5000   55.5000   81.0900   -2.6903 
9992.0000   10.1510   10.9155    0.1000    0.0000    0.0001    0.0000    1.0000    4.0000    0.8201    0.1231  170.2496    8.5000   55.5000   81.8200   -3.1422 
9992.5000   10.2330   10.7913    0.1000    0.0000    0.0001    0.0000    1.0000    4.0000    0.8322    0.1249  172.4653    8.5000   55.5000   80.1100   -3.2022 
9993.0000   10.1900   10.6229    0.1000    0.0000    0.0001    0.0000    1.0000    4.0000    0.8377    0.1258  173.4688    8.5000   55.5000   80.3400   -3.0542 
9993.5000   10.1110   10.3279    0.1000    0.0000    0.0001    0.0000    1.0000    4.0000    0.8204    0.1232  170.3148    8.5000   55.5000   80.4600   -3.2042 
9994.0000   10.1330    9.9311    0.1000    0.0000    0.0001    0.0000    1.0000    4.0000    0.8058    0.1210  167.6560    8.5000   55.5000   80.7000   -3.4732 
9994.5000   10.1280    9.8352    0.1000    0.0000    0.0001    0.0000    1.0000    4.0000    0.7933    0.1191  165.3881    8.5000   55.5000   81.2700   -3.4381 
9995.0000    9.8640    9.7149    0.1000    0.0000    0.0001    0.0000    1.0000    4.0000    0.7905    0.1187  164.8798    8.5000   55.5000   80.5700   -3.6261 
9995.5000    9.4470    9.5493    0.1000    0.0000    0.0001    0.0000    1.0000    4.0000    0.7927    0.1190  165.2708    8.5000   55.5000   81.0200   -4.1201 
9996.0000    9.0700    9.5438    0.1000    0.0000    0.0001    0.0000    1.0000    4.0000    0.7991    0.1200  166.4438    8.5000   55.5000   81.4300   -4.3601 
9996.5000    8.7460    9.5554    0.1000    0.0000    0.0001    0.0000    1.0000    4.0000    0.8066    0.1211  167.7993    8.5000   55.5000   80.8300   -4.3151 
9997.0000    8.8920    9.3640    0.1000    0.0000    0.0001    0.0000    1.0000    4.0000    0.8161    0.1225  169.5328    8.5000   55.5000   79.5400   -4.1390 
9997.5000    9.2480    9.1025    0.1000    0.0000    0.0001    0.0000    1.0000    4.0000    0.8259    0.1240  171.3053    8.5000   55.5000   81.4400   -4.2040 
9998.0000    9.2720    8.9654    0.1000    0.0000    0.0001    0.0000    1.0000    4.0000    0.8334    0.1251  172.6738    8.5000   55.5000   83.2400   -4.4480 
9998.5000    8.7920    8.9471    0.1000    0.0000    0.0001    0.0000    1.0000    4.0000    0.8408    0.1262  174.0293    8.5000   55.5000   84.2100   -4.2220 
9999.0000    8.9910    9.1786    0.1000    0.0000    0.0001    0.0000    1.0000    4.0000    0.8497    0.1276  175.6454    8.5000   55.5000   82.1700   -4.1510 
9999.5000    9.3050    9.4264    0.1000    0.0000    0.0001    0.0000    1.0000    4.0000    0.8527    0.1280  176.1928    8.5000   55.5000   82.9100   -4.7080 
