~VERSION INFORMATION
 VERS.                 2.0:   CWLS LOG ASCII STANDARD - VERSION 2.0
 WRAP.                  NO:   SINGLE LINE PER DEPTH STEP
 CREA.                 02/27/2023 11:24:21
#CREATED USING DSPetro VERSION 10ep.5.0.03 BY H225751 ON 02/27/2023 11:24:21
~WELL INFORMATION
#MNEM.UNIT       DATA                          DESCRIPTION MNEMONIC
#---------      ---------------------------   --------------------------
 STRT    .FT        8900.0000                 : START DEPTH
 STOP    .FT        10200.0000                : STOP DEPTH
 STEP    .FT        0.5000                    : STEP VALUE
 NULL    .      -999.0000                     : NULL VALUE
 DATE    .      02/27/2023                    : LAS file Creation Date
 WELL   .      LGA-021                        : Well Name
 COMP   .      PETROPRODUCCION                : Company
 FLD    .      LAGO AGRIO                     : Field
 STATE  .      SUCUMBIOS                      : State
 COUNT  .      ECUADOR                        : Country
 UWI    .      LGA-021                        : Unique Well Identifier (UWI)
 LOC    .      TWP        - Range       - Sec : Location
 PDAT   .      GR                             : Permanent Datum
 LGMEA  .      KB                             : Log Measured from
 DRMEA  .      KB                             : Drill Measured From
 KB     .      986                            : KB Elevation
 DF     .      -999.2500                      : DF Elevation
 GL     .      -999.2500                      : GL Elevation
 RWS    .      0                              : Def_Rw
 WST    .      0                              : Def_Rwt
 UTMZ   .      31                             : UTM Zone
 CNTY   .      LA                             : County
 PROV   .      SUCUMBIOS                      : Province
 MDEC   .      0                              : Magnetic Declination
 SRVC   .      SCH                            : Contractor
 GDAT   .      WGS 84                         : Geodatum
 LONG   .      0                              : Longitude
 LATI   .      0                              : Latitude
 COORDIN.                                     : Grid System
 XCOORD .                                     : X or East-West Coordinate
 YCOORD .                                     : Y or North-South Coordinate
~CURVE INFORMATION
#MNEM              UNIT       API CODE   Curve Type Comments
#----------  --------------- ----------  ---------- -----------
 DEPTH      .FT                        : Depth       
 CALI       .inches                    : Caliper     Caliper
 ILD        .ohm.m                     :             
 KTR        .                          :             Multi-Line Formulae Output Curve
 PayFlag    .                          : PayFlag     
 PHIE       .Dec                       : Phi         
 ResFlag    .                          : ResFlag     
 SW         .Dec                       : Sw          
 TR1        .                          :             Multi-Line Formulae Output Curve
 VCLGR      .Dec                       : Vcl         
 PHIT       .Dec                       : PhiT        
 GR         .API                       : GammaRay    GRn = 1.30334 x GR + -6.4442
 BS         .inch                      : BitSize     Multi-Line Formulae Output Curve
 DTMA       .uSec/ft                   : DTMatx      
 DT         .us/ft                     : Sonic       Sonic Travel Time
 SP         .mV                        : SP          
~A  DEPTH    CALI      ILD       KTR     PayFlag     PHIE    ResFlag      SW       TR1      VCLGR      PHIT       GR        BS       DTMA       DT        SP    
# ...
8975.0000    8.7620    5.4825    0.1000    0.0000    0.0001    0.0000    1.0000    4.0000    0.5816    0.0873   84.0858    8.5000   55.5000   78.0500   -2.6660 
8975.5000    8.8020    5.2917    0.1000    0.0000    0.0551    0.0000    0.6290    4.0000    0.5818    0.1424   84.1119    8.5000   55.5000   79.0700   -1.9862 
8976.0000    8.9460    4.9170    1.4115    0.0000    0.0718    0.0000    0.5602    4.0000    0.6208    0.1649   87.7352    8.5000   55.5000   82.4800   -2.0164 
8976.5000    8.9570    4.5150    7.6075    0.0000    0.0839    0.0000    0.5268    3.0000    0.6607    0.1830   91.4497    8.5000   55.5000   85.2800   -2.2966 
8977.0000    8.9250    4.0542    0.6394    0.0000    0.0854    0.0000    0.5417    3.0000    0.6902    0.1889   94.1867    8.5000   55.5000   87.2400   -2.2568 
8977.5000    8.9660    3.5606    0.1000    0.0000    0.0673    0.0000    0.6411    4.0000    0.7091    0.1737   95.9462    8.5000   55.5000   88.3000   -1.7270 
8978.0000    9.2060    3.3473    0.1000    0.0000    0.0691    0.0000    0.6543    4.0000    0.7071    0.1752   95.7637    8.5000   55.5000   87.7200   -1.6772 
8978.5000    9.3360    3.1981    0.1000    0.0000    0.0728    0.0000    0.6548    4.0000    0.7031    0.1783   95.3857    8.5000   55.5000   88.6000   -1.8674 
8979.0000    9.2140    3.1802    0.1000    0.0000    0.0637    0.0000    0.6936    4.0000    0.7133    0.1707   96.3372    8.5000   55.5000   87.9500   -1.2100 
8979.5000    9.2600    3.2066    0.1000    0.0000    0.0001    0.0000    1.0000    4.0000    0.7546    0.1133  100.1820    8.5000   55.5000   87.6900   -0.3831 
8980.0000    9.4870    3.3046    0.1000    0.0000    0.0001    0.0000    1.0000    4.0000    0.7984    0.1199  104.2485    8.5000   55.5000   84.6500   -0.0003 
8980.5000    9.5460    3.5727    0.1000    0.0000    0.0001    0.0000    1.0000    4.0000    0.7827    0.1175  102.7887    8.5000   55.5000   81.7700   -0.1214 
8981.0000    9.3770    4.0571    0.1000    0.0000    0.0001    0.0000    1.0000    4.0000    0.7492    0.1125   99.6737    8.5000   55.5000   80.0900    0.1044 
8981.5000    9.2780    4.7054    0.1000    0.0000    0.0001    0.0000    1.0000    4.0000    0.7018    0.1054   95.2685    8.5000   55.5000   78.7000   -0.0387 
8982.0000    9.3310    5.4466    0.1000    0.0000    0.0001    0.0000    1.0000    4.0000    0.6389    0.0959   89.4165    8.5000   55.5000   77.4700   -0.2169 
8982.5000    9.4510    6.1367    0.1000    0.0000    0.0537    0.0000    0.5908    4.0000    0.5814    0.1409   84.0728    8.5000   55.5000   78.8900   -0.4830 
8983.0000    9.4130    6.5672    0.1000    0.0000    0.0515    0.0000    0.5946    4.0000    0.5563    0.1349   81.7398    8.5000   55.5000   77.8900   -1.1302 
8983.5000    9.3720    6.6359    0.1000    0.0000    0.0001    0.0000    1.0000    4.0000    0.5688    0.0854   82.8998    8.5000   55.5000   76.3900   -0.1833 
8984.0000    9.3530    6.4045    0.1000    0.0000    0.0001    0.0000    1.0000    4.0000    0.6012    0.0903   85.9105    8.5000   55.5000   76.6800   -0.4105 
8984.5000    9.2890    6.0545    0.1000    0.0000    0.0001    0.0000    1.0000    4.0000    0.6399    0.0961   89.5077    8.5000   55.5000   76.8700   -1.1896 
8985.0000    9.1900    5.5224    0.1000    0.0000    0.0001    0.0000    1.0000    4.0000    0.6919    0.1039   94.3431    8.5000   55.5000   77.9300   -1.2948 
8985.5000    9.2530    5.1001    0.1000    0.0000    0.0001    0.0000    1.0000    4.0000    0.7237    0.1087   97.3017    8.5000   55.5000   81.4100   -1.5289 
8986.0000    9.3080    4.8796    0.1000    0.0000    0.0586    0.0000    0.5849    4.0000    0.6998    0.1636   95.0860    8.5000   55.5000   82.8200   -2.2061 
8986.5000    9.2230    4.7590    0.7697    0.0000    0.0615    0.0000    0.5855    4.0000    0.6856    0.1644   93.7566    8.5000   55.5000   82.8300   -2.0942 
8987.0000    9.2830    4.5375    0.1000    0.0000    0.0001    0.0000    1.0000    4.0000    0.7059    0.1060   95.6464    8.5000   55.5000   80.4300   -1.6274 
8987.5000    9.5510    4.3294    0.1000    0.0000    0.0001    0.0000    1.0000    4.0000    0.7432    0.1116   99.1133    8.5000   55.5000   78.7000   -1.3935 
8988.0000    9.7640    4.2600    0.1000    0.0000    0.0001    0.0000    1.0000    4.0000    0.7887    0.1184  103.3492    8.5000   55.5000   77.6400   -2.0107 
8988.5000    9.5460    4.2745    0.1000    0.0000    0.0001    0.0000    1.0000    4.0000    0.8490    0.1274  108.9535    8.5000   55.5000   76.8900   -2.3258 
8989.0000    9.2280    4.3002    0.1000    0.0000    0.0001    0.0000    1.0000    4.0000    0.8757    0.1315  111.4429    8.5000   55.5000   77.6900   -2.4030 
8989.5000    9.1170    4.2606    0.1000    0.0000    0.0001    0.0000    1.0000    4.0000    0.8931    0.1341  113.0590    8.5000   55.5000   78.4200   -1.9831 
8990.0000    8.9780    4.1409    0.1000    0.0000    0.0001    0.0000    1.0000    4.0000    0.9099    0.1366  114.6230    8.5000   55.5000   78.5900   -1.8453 
8990.5000    8.7860    4.0584    0.1000    0.0000    0.0001    0.0000    1.0000    4.0000    0.9290    0.1394  116.3956    8.5000   55.5000   79.6700   -1.9264 
8991.0000    8.7690    4.0056    0.1000    0.0000    0.0001    0.0000    1.0000    4.0000    0.9514    0.1428  118.4809    8.5000   55.5000   80.6700   -1.7706 
8991.5000    8.8360    3.8587    0.1000    0.0000    0.0001    0.0000    1.0000    4.0000    0.9186    0.1379  115.4311    8.5000   55.5000   81.4400   -0.9797 
8992.0000    8.8220    3.7447    0.1000    0.0000    0.0001    0.0000    1.0000    4.0000    0.8766    0.1316  111.5211    8.5000   55.5000   82.3300   -0.9179 
8992.5000    9.2280    3.6526    0.1000    0.0000    0.0001    0.0000    1.0000    4.0000    0.8368    0.1256  107.8196    8.5000   55.5000   82.4500   -1.3131 
8993.0000   10.7750    3.4958    0.1000    0.0000    0.0001    0.0000    1.0000    4.0000    0.8066    0.1211  105.0174    8.5000   55.5000   81.3500   -1.3872 
8993.5000   11.0760    3.3284    0.1000    0.0000    0.0001    0.0000    1.0000    4.0000    0.7827    0.1175  102.7887    8.5000   55.5000   83.4100   -1.2454 
8994.0000   11.1020    3.2480    0.1000    0.0000    0.0001    0.0000    1.0000    4.0000    0.7765    0.1166  102.2153    8.5000   55.5000   84.2600   -1.6455 
8994.5000   11.2270    3.1900    0.1000    0.0000    0.0001    0.0000    1.0000    4.0000    0.8055    0.1209  104.9132    8.5000   55.5000   85.7700   -1.9587 
8995.0000   10.8560    3.2109    0.1000    0.0000    0.0001    0.0000    1.0000    4.0000    0.8504    0.1277  109.0839    8.5000   55.5000   88.1000   -1.7968 
8995.5000   10.3110    3.3128    0.1000    0.0000    0.0001    0.0000    1.0000    4.0000    0.8623    0.1294  110.1917    8.5000   55.5000   88.5700   -1.3340 
8996.0000   10.3360    3.5487    0.1000    0.0000    0.0001    0.0000    1.0000    4.0000    0.8443    0.1268  108.5234    8.5000   55.5000   88.6200   -1.4451 
8996.5000   11.2150    3.9043    0.1000    0.0000    0.0001    0.0000    1.0000    4.0000    0.8205    0.1232  106.3077    8.5000   55.5000   87.1700   -1.6993 
8997.0000   11.2050    4.2989    0.1000    0.0000    0.0001    0.0000    1.0000    4.0000    0.7741    0.1162  101.9937    8.5000   55.5000   84.2700   -1.3534 
8997.5000   10.2960    4.7154    0.1000    0.0000    0.0001    0.0000    1.0000    4.0000    0.7375    0.1107   98.5920    8.5000   55.5000   83.2700   -1.0456 
8998.0000   11.0230    5.1338    0.1000    0.0000    0.0001    0.0000    1.0000    4.0000    0.7045    0.1058   95.5161    8.5000   55.5000   80.5800   -0.7557 
8998.5000   11.4380    5.4473    0.1000    0.0000    0.0001    0.0000    1.0000    4.0000    0.6921    0.1039   94.3691    8.5000   55.5000   79.9600   -0.9759 
8999.0000   11.1510    5.4712    0.1000    0.0000    0.0503    0.0000    0.5907    4.0000    0.6905    0.1539   94.2128    8.5000   55.5000   81.4200   -1.3650 
8999.5000   11.1680    5.2429    0.1000    0.0000    0.0573    0.0000    0.5692    4.0000    0.7005    0.1624   95.1511    8.5000   55.5000   82.6700   -0.8382 
