~VERSION INFORMATION
 VERS.                 2.0:   CWLS LOG ASCII STANDARD - VERSION 2.0
 WRAP.                  NO:   SINGLE LINE PER DEPTH STEP
 CREA.                 02/27/2023 11:24:21
#CREATED USING DSPetro VERSION 10ep.5.0.03 BY H225751 ON 02/27/2023 11:24:21
~WELL INFORMATION
#MNEM.UNIT       DATA                          DESCRIPTION MNEMONIC
#---------      ---------------------------   --------------------------
 STRT    .FT        8900.0000                 : START DEPTH
 STOP    .FT        10200.0000                : STOP DEPTH
 STEP    .FT        0.5000                    : STEP VALUE
 NULL    .      -999.0000                     : NULL VALUE
 DATE    .      02/27/2023                    : LAS file Creation Date
 WELL   .      LGA-021                        : Well Name
 COMP   .      PETROPRODUCCION                : Company
 FLD    .      LAGO AGRIO                     : Field
 STATE  .      SUCUMBIOS                      : State
 COUNT  .      ECUADOR                        : Country
 UWI    .      LGA-021                        : Unique Well Identifier (UWI)
 LOC    .      TWP        - Range       - Sec : Location
 PDAT   .      GR                             : Permanent Datum
 LGMEA  .      KB                             : Log Measured from
 DRMEA  .      KB                             : Drill Measured From
 KB     .      986                            : KB Elevation
 DF     .      -999.2500                      : DF Elevation
 GL     .      -999.2500                      : GL Elevation
 RWS    .      0                              : Def_Rw
 WST    .      0                              : Def_Rwt
 UTMZ   .      31                             : UTM Zone
 CNTY   .      LA                             : County
 PROV   .      SUCUMBIOS                      : Province
 MDEC   .      0                              : Magnetic Declination
 SRVC   .      SCH                            : Contractor
 GDAT   .      WGS 84                         : Geodatum
 LONG   .      0                              : Longitude
 LATI   .      0                              : Latitude
 COORDIN.                                     : Grid System
 XCOORD .                                     : X or East-West Coordinate
 YCOORD .                                     : Y or North-South Coordinate
~CURVE INFORMATION
#MNEM              UNIT       API CODE   Curve Type Comments
#----------  --------------- ----------  ---------- -----------
 DEPTH      .FT                        : Depth       
 CALI       .inches                    : Caliper     Caliper
 ILD        .ohm.m                     :             
 KTR        .                          :             Multi-Line Formulae Output Curve
 PayFlag    .                          : PayFlag     
 PHIE       .Dec                       : Phi         
 ResFlag    .                          : ResFlag     
 SW         .Dec                       : Sw          
 TR1        .                          :             Multi-Line Formulae Output Curve
 VCLGR      .Dec                       : Vcl         
 PHIT       .Dec                       : PhiT        
 GR         .API                       : GammaRay    GRn = 1.30334 x GR + -6.4442
 BS         .inch                      : BitSize     Multi-Line Formulae Output Curve
 DTMA       .uSec/ft                   : DTMatx      
 DT         .us/ft                     : Sonic       Sonic Travel Time
 SP         .mV                        : SP          
~A  DEPTH    CALI      ILD       KTR     PayFlag     PHIE    ResFlag      SW       TR1      VCLGR      PHIT       GR        BS       DTMA       DT        SP    
# ...
9075.0000    9.1850    3.7684    0.1000    0.0000    0.0001    0.0000    1.0000    4.0000    1.0133    0.1501  117.3210    8.5000   55.5000   85.3700   -1.5076 
9075.5000    9.2730    3.7662    0.1000    0.0000    0.0001    0.0000    1.0000    4.0000    0.9707    0.1457  113.0981    8.5000   55.5000   82.5900   -0.8111 
9076.0000    9.3030    3.7767    0.1000    0.0000    0.0001    0.0000    1.0000    4.0000    0.9529    0.1430  111.3386    8.5000   55.5000   79.7300   -0.6647 
9076.5000    9.3230    3.7924    0.1000    0.0000    0.0001    0.0000    1.0000    4.0000    0.9499    0.1426  111.0389    8.5000   55.5000   77.9500   -0.6892 
9077.0000    9.5830    3.9565    0.1000    0.0000    0.0001    0.0000    1.0000    4.0000    0.9754    0.1464  113.5673    8.5000   55.5000   76.8800   -0.6418 
9077.5000    9.4160    4.3872    0.1000    0.0000    0.0001    0.0000    1.0000    4.0000    1.0235    0.1501  118.3245    8.5000   55.5000   79.3800   -1.0043 
9078.0000    9.4080    4.9348    0.1000    0.0000    0.0001    0.0000    1.0000    4.0000    1.0717    0.1501  123.0948    8.5000   55.5000   81.2300   -1.4369 
9078.5000    9.7570    5.2510    0.1000    0.0000    0.0001    0.0000    1.0000    4.0000    1.1214    0.1501  128.0214    8.5000   55.5000   80.4100   -2.0024 
9079.0000   10.0720    5.2908    0.1000    0.0000    0.0001    0.0000    1.0000    4.0000    1.1653    0.1501  132.3615    8.5000   55.5000   79.8200   -1.6800 
9079.5000    9.9210    5.2941    0.1000    0.0000    0.0001    0.0000    1.0000    4.0000    1.2216    0.1501  137.9398    8.5000   55.5000   79.0200   -1.0226 
9080.0000    9.7620    5.5529    0.1000    0.0000    0.0001    0.0000    1.0000    4.0000    1.2714    0.1501  142.8664    8.5000   55.5000   79.4500   -0.9741 
9080.5000    9.8000    6.2016    0.1000    0.0000    0.0001    0.0000    1.0000    4.0000    1.3156    0.1501  147.2457    8.5000   55.5000   77.3200   -1.5537 
9081.0000    9.9420    7.0127    0.1000    0.0000    0.0001    0.0000    1.0000    4.0000    1.3430    0.1501  149.9566    8.5000   55.5000   74.3500   -1.8252 
9081.5000   10.2780    7.6105    0.1000    0.0000    0.0001    0.0000    1.0000    4.0000    1.3315    0.1501  148.8227    8.5000   55.5000   71.9200   -1.7398 
9082.0000   10.7620    7.6609    0.1000    0.0000    0.0001    0.0000    1.0000    4.0000    1.2558    0.1501  141.3285    8.5000   55.5000   68.9100   -2.0493 
9082.5000   11.0090    7.3399    0.1000    0.0000    0.0001    0.0000    1.0000    4.0000    1.1830    0.1501  134.1210    8.5000   55.5000   67.8000   -1.8499 
9083.0000   11.1050    6.5668    0.1000    0.0000    0.0001    0.0000    1.0000    4.0000    1.1337    0.1501  129.2335    8.5000   55.5000   68.3300   -1.4724 
9083.5000   10.9790    5.5384    0.1000    0.0000    0.0001    0.0000    1.0000    4.0000    1.1229    0.1501  128.1647    8.5000   55.5000   70.2000   -1.4840 
9084.0000   10.7140    4.6822    0.1000    0.0000    0.0001    0.0000    1.0000    4.0000    1.1537    0.1501  131.2146    8.5000   55.5000   72.5300   -1.8835 
9084.5000   10.7770    3.9417    0.1000    0.0000    0.0001    0.0000    1.0000    4.0000    1.1977    0.1501  135.5677    8.5000   55.5000   80.8500   -2.0171 
9085.0000   10.9440    3.4936    0.1000    0.0000    0.0001    0.0000    1.0000    4.0000    1.2092    0.1501  136.7147    8.5000   55.5000   86.0900   -1.8217 
9085.5000   11.0990    3.2955    0.1000    0.0000    0.0001    0.0000    1.0000    4.0000    1.1564    0.1501  131.4883    8.5000   55.5000   88.6100   -1.5712 
9086.0000   11.2070    3.3050    0.1000    0.0000    0.0001    0.0000    1.0000    4.0000    1.0973    0.1501  125.6363    8.5000   55.5000   87.8100   -1.8193 
9086.5000   11.1980    3.4334    0.1000    0.0000    0.0001    0.0000    1.0000    4.0000    1.0265    0.1501  118.6243    8.5000   55.5000   87.7800   -2.3125 
9087.0000   11.2030    3.5962    0.1000    0.0000    0.0001    0.0000    1.0000    4.0000    1.0103    0.1501  117.0212    8.5000   55.5000   88.1800   -2.1008 
9087.5000   10.7900    3.9008    0.1000    0.0000    0.0001    0.0000    1.0000    4.0000    0.9981    0.1498  115.8091    8.5000   55.5000   86.9800   -1.8781 
9088.0000    9.9650    4.3944    0.1000    0.0000    0.0001    0.0000    1.0000    4.0000    0.9770    0.1467  113.7237    8.5000   55.5000   85.0800   -2.1664 
9088.5000   10.2930    4.8973    0.1000    0.0000    0.0001    0.0000    1.0000    4.0000    0.9478    0.1423  110.8303    8.5000   55.5000   86.4600   -2.4106 
9089.0000   10.3040    5.0065    0.1000    0.0000    0.0001    0.0000    1.0000    4.0000    0.9428    0.1415  110.3351    8.5000   55.5000   87.3700   -2.1669 
9089.5000   10.3270    4.9949    0.1000    0.0000    0.0001    0.0000    1.0000    4.0000    0.9491    0.1425  110.9607    8.5000   55.5000   87.1800   -2.2262 
9090.0000    9.8200    5.1436    0.1000    0.0000    0.0001    0.0000    1.0000    4.0000    0.9394    0.1410  109.9962    8.5000   55.5000   89.2200   -2.4374 
9090.5000    9.2580    5.4530    0.1000    0.0000    0.0001    0.0000    1.0000    4.0000    0.9175    0.1377  107.8326    8.5000   55.5000   91.6300   -2.2927 
9091.0000    9.1370    5.7929    0.1000    0.0000    0.0001    0.0000    1.0000    4.0000    0.9062    0.1360  106.7118    8.5000   55.5000   91.2300   -1.7320 
9091.5000    8.9710    6.0071    0.1000    0.0000    0.0001    0.0000    1.0000    4.0000    0.9224    0.1385  108.3149    8.5000   55.5000   91.9700   -1.6252 
9092.0000    8.9090    5.9700    0.1000    0.0000    0.0001    0.0000    1.0000    4.0000    0.9442    0.1417  110.4784    8.5000   55.5000   91.7700   -1.5785 
9092.5000    8.9600    5.6093    0.1000    0.0000    0.0001    0.0000    1.0000    4.0000    0.9483    0.1423  110.8825    8.5000   55.5000   91.7000   -1.3438 
9093.0000    8.8990    5.2508    0.1000    0.0000    0.0001    0.0000    1.0000    4.0000    0.9316    0.1398  109.2272    8.5000   55.5000   90.6400   -1.3910 
9093.5000    8.8930    4.9282    0.1000    0.0000    0.0001    0.0000    1.0000    4.0000    0.9101    0.1366  107.1028    8.5000   55.5000   90.0900   -1.8043 
9094.0000    9.1600    4.6022    0.1000    0.0000    0.0001    0.0000    1.0000    4.0000    0.8835    0.1326  104.4700    8.5000   55.5000   89.1300   -2.1436 
9094.5000    8.8300    4.4692    0.1000    0.0000    0.0001    0.0000    1.0000    4.0000    0.8689    0.1304  103.0233    8.5000   55.5000   92.6700   -2.0588 
9095.0000    9.0890    4.4388    0.1000    0.0000    0.0001    0.0000    1.0000    4.0000    0.8804    0.1322  104.1572    8.5000   55.5000   93.6500   -1.5261 
9095.5000    9.1950    4.5058    0.1000    0.0000    0.0001    0.0000    1.0000    4.0000    0.8866    0.1331  104.7698    8.5000   55.5000   95.8700   -1.4494 
9096.0000    9.3280    4.7492    0.1000    0.0000    0.0001    0.0000    1.0000    4.0000    0.8875    0.1332  104.8610    8.5000   55.5000   95.7200   -1.7866 
9096.5000    9.6280    5.2734    0.1000    0.0000    0.0001    0.0000    1.0000    4.0000    0.8792    0.1320  104.0399    8.5000   55.5000   93.4400   -1.5799 
9097.0000    9.4520    5.8627    0.1000    0.0000    0.0001    0.0000    1.0000    4.0000    0.8706    0.1307  103.1928    8.5000   55.5000   86.8000   -1.5022 
9097.5000    9.2320    6.3141    0.1000    0.0000    0.0001    0.0000    1.0000    4.0000    0.8693    0.1305  103.0624    8.5000   55.5000   88.1100   -1.8654 
9098.0000    9.3350    6.8240    0.1000    0.0000    0.0001    0.0000    1.0000    4.0000    0.8600    0.1291  102.1370    8.5000   55.5000   89.7700   -2.0097 
9098.5000    9.3220    7.3131    0.1000    0.0000    0.0001    0.0000    1.0000    4.0000    0.8273    0.1242   98.9048    8.5000   55.5000   87.3000   -1.8290 
9099.0000    9.1430    7.3322    0.1000    0.0000    0.0001    0.0000    1.0000    4.0000    0.7972    0.1197   95.9201    8.5000   55.5000   86.8900   -1.8082 
9099.5000    9.1390    7.0609    0.1000    0.0000    0.0001    0.0000    1.0000    4.0000    0.7635    0.1146   92.5836    8.5000   55.5000   84.4200   -2.0515 
