~VERSION INFORMATION
 VERS.                 2.0:   CWLS LOG ASCII STANDARD - VERSION 2.0
 WRAP.                  NO:   SINGLE LINE PER DEPTH STEP
 CREA.                 02/27/2023 11:24:21
#CREATED USING DSPetro VERSION 10ep.5.0.03 BY H225751 ON 02/27/2023 11:24:21
~WELL INFORMATION
#MNEM.UNIT       DATA                          DESCRIPTION MNEMONIC
#---------      ---------------------------   --------------------------
 STRT    .FT        8900.0000                 : START DEPTH
 STOP    .FT        10200.0000                : STOP DEPTH
 STEP    .FT        0.5000                    : STEP VALUE
 NULL    .      -999.0000                     : NULL VALUE
 DATE    .      02/27/2023                    : LAS file Creation Date
 WELL   .      LGA-021                        : Well Name
 COMP   .      PETROPRODUCCION                : Company
 FLD    .      LAGO AGRIO                     : Field
 STATE  .      SUCUMBIOS                      : State
 COUNT  .      ECUADOR                        : Country
 UWI    .      LGA-021                        : Unique Well Identifier (UWI)
 LOC    .      TWP        - Range       - Sec : Location
 PDAT   .      GR                             : Permanent Datum
 LGMEA  .      KB                             : Log Measured from
 DRMEA  .      KB                             : Drill Measured From
 KB     .      986                            : KB Elevation
 DF     .      -999.2500                      : DF Elevation
 GL     .      -999.2500                      : GL Elevation
 RWS    .      0                              : Def_Rw
 WST    .      0                              : Def_Rwt
 UTMZ   .      31                             : UTM Zone
 CNTY   .      LA                             : County
 PROV   .      SUCUMBIOS                      : Province
 MDEC   .      0                              : Magnetic Declination
 SRVC   .      SCH                            : Contractor
 GDAT   .      WGS 84                         : Geodatum
 LONG   .      0                              : Longitude
 LATI   .      0                              : Latitude
 COORDIN.                                     : Grid System
 XCOORD .                                     : X or East-West Coordinate
 YCOORD .                                     : Y or North-South Coordinate
~CURVE INFORMATION
#MNEM              UNIT       API CODE   Curve Type Comments
#----------  --------------- ----------  ---------- -----------
 DEPTH      .FT                        : Depth       
 CALI       .inches                    : Caliper     Caliper
 ILD        .ohm.m                     :             
 KTR        .                          :             Multi-Line Formulae Output Curve
 PayFlag    .                          : PayFlag     
 PHIE       .Dec                       : Phi         
 ResFlag    .                          : ResFlag     
 SW         .Dec                       : Sw          
 TR1        .                          :             Multi-Line Formulae Output Curve
 VCLGR      .Dec                       : Vcl         
 PHIT       .Dec                       : PhiT        
 GR         .API                       : GammaRay    GRn = 1.30334 x GR + -6.4442
 BS         .inch                      : BitSize     Multi-Line Formulae Output Curve
 DTMA       .uSec/ft                   : DTMatx      
 DT         .us/ft                     : Sonic       Sonic Travel Time
 SP         .mV                        : SP          
~A  DEPTH    CALI      ILD       KTR     PayFlag     PHIE    ResFlag      SW       TR1      VCLGR      PHIT       GR        BS       DTMA       DT        SP    
# ...
9150.0000    9.9970    3.3213    0.1000    0.0000    0.0001    0.0000    1.0000    4.0000    0.7833    0.1176   94.5516    8.5000   55.5000   80.4300   -2.7435 
9150.5000   10.8880    3.3625    0.1000    0.0000    0.0001    0.0000    1.0000    4.0000    0.7928    0.1190   95.4900    8.5000   55.5000   80.1600   -2.9088 
9151.0000   11.3330    3.3626    0.1000    0.0000    0.0001    0.0000    1.0000    4.0000    0.8055    0.1209   96.7412    8.5000   55.5000   80.7600   -2.7261 
9151.5000   11.7210    3.3585    0.1000    0.0000    0.0001    0.0000    1.0000    4.0000    0.8081    0.1213   97.0019    8.5000   55.5000   80.2900   -2.5903 
9152.0000   11.5600    3.3536    0.1000    0.0000    0.0001    0.0000    1.0000    4.0000    0.7887    0.1184   95.0860    8.5000   55.5000   80.5900   -2.6456 
9152.5000   11.3200    3.3321    0.1000    0.0000    0.0001    0.0000    1.0000    4.0000    0.7641    0.1147   92.6487    8.5000   55.5000   80.3500   -3.1749 
9153.0000   11.6130    3.3490    0.1000    0.0000    0.0001    0.0000    1.0000    4.0000    0.7375    0.1107   90.0160    8.5000   55.5000   80.6600   -3.6471 
9153.5000   11.1570    3.4409    0.1000    0.0000    0.0001    0.0000    1.0000    4.0000    0.7204    0.1082   88.3216    8.5000   55.5000   80.1400   -3.6794 
9154.0000   10.8460    3.5141    0.1000    0.0000    0.0001    0.0000    1.0000    4.0000    0.7040    0.1057   86.6925    8.5000   55.5000   80.3200   -3.5037 
9154.5000   10.7520    3.5657    0.1000    0.0000    0.0001    0.0000    1.0000    4.0000    0.6868    0.1031   84.9981    8.5000   55.5000   80.8500   -3.5119 
9155.0000   10.6230    3.6478    0.1000    0.0000    0.0001    0.0000    1.0000    4.0000    0.6768    0.1016   84.0076    8.5000   55.5000   79.9600   -4.0142 
9155.5000   10.4640    3.6555    0.1000    0.0000    0.0001    0.0000    1.0000    4.0000    0.6903    0.1036   85.3370    8.5000   55.5000   79.6400   -3.9395 
9156.0000   10.4780    3.5165    0.1000    0.0000    0.0001    0.0000    1.0000    4.0000    0.7504    0.1127   91.2933    8.5000   55.5000   82.4600   -3.6397 
9156.5000   10.1450    3.2425    0.1000    0.0000    0.0001    0.0000    1.0000    4.0000    0.8244    0.1238   98.6180    8.5000   55.5000   86.5100   -3.6670 
9157.0000   10.2110    2.9890    0.1000    0.0000    0.0001    0.0000    1.0000    4.0000    0.8953    0.1344  105.6300    8.5000   55.5000   90.6500   -4.0663 
9157.5000   10.2590    2.7166    0.1000    0.0000    0.0001    0.0000    1.0000    4.0000    0.9956    0.1494  115.5615    8.5000   55.5000   94.4900   -3.9876 
9158.0000   10.1820    2.4737    0.1000    0.0000    0.0001    0.0000    1.0000    4.0000    1.0983    0.1501  125.7275    8.5000   55.5000   96.9900   -3.6678 
9158.5000    9.9540    2.2975    0.1000    0.0000    0.0001    0.0000    1.0000    4.0000    1.1521    0.1501  131.0582    8.5000   55.5000   98.0000   -3.6601 
9159.0000    9.5550    2.1828    0.1000    0.0000    0.0001    0.0000    1.0000    4.0000    1.1455    0.1501  130.4065    8.5000   55.5000   97.2200   -2.9574 
9159.5000    9.5580    2.1315    0.1000    0.0000    0.0001    0.0000    1.0000    4.0000    1.1100    0.1501  126.8875    8.5000   55.5000   95.8300   -2.1676 
9160.0000   10.0560    2.1042    0.1000    0.0000    0.0001    0.0000    1.0000    4.0000    1.0501    0.1501  120.9573    8.5000   55.5000   92.3000   -1.6549 
9160.5000    9.9270    2.0975    0.1000    0.0000    0.0001    0.0000    1.0000    4.0000    0.9771    0.1467  113.7368    8.5000   55.5000   90.3500   -1.5512 
9161.0000    9.5170    2.0813    0.1000    0.0000    0.0001    0.0000    1.0000    4.0000    0.9294    0.1395  109.0057    8.5000   55.5000   90.3600   -1.2484 
9161.5000    9.5100    2.0694    0.1000    0.0000    0.0001    0.0000    1.0000    4.0000    0.9089    0.1364  106.9855    8.5000   55.5000   89.9200   -1.0097 
9162.0000    9.4610    2.0994    0.1000    0.0000    0.0001    0.0000    1.0000    4.0000    0.9071    0.1362  106.8030    8.5000   55.5000   89.7400   -1.0960 
9162.5000    9.3400    2.1563    0.1000    0.0000    0.0001    0.0000    1.0000    4.0000    0.9193    0.1380  108.0151    8.5000   55.5000   89.3200   -1.4852 
9163.0000    9.1020    2.1927    0.1000    0.0000    0.0001    0.0000    1.0000    4.0000    0.9395    0.1410  110.0092    8.5000   55.5000   91.0100   -1.6115 
9163.5000    9.0420    2.2336    0.1000    0.0000    0.0001    0.0000    1.0000    4.0000    0.9670    0.1452  112.7332    8.5000   55.5000   90.5100   -1.6288 
9164.0000    9.1210    2.2939    0.1000    0.0000    0.0001    0.0000    1.0000    4.0000    0.9937    0.1492  115.3790    8.5000   55.5000   91.9300   -1.4890 
9164.5000    9.1840    2.3534    0.1000    0.0000    0.0001    0.0000    1.0000    4.0000    0.9990    0.1499  115.9003    8.5000   55.5000   92.3000   -1.8753 
9165.0000    9.1210    2.4159    0.1000    0.0000    0.0001    0.0000    1.0000    4.0000    1.0022    0.1501  116.2131    8.5000   55.5000   90.8700   -1.2996 
9165.5000    9.0090    2.4850    0.1000    0.0000    0.0001    0.0000    1.0000    4.0000    1.0165    0.1501  117.6338    8.5000   55.5000   89.9200   -0.9108 
9166.0000    8.9860    2.5480    0.1000    0.0000    0.0001    0.0000    1.0000    4.0000    1.0189    0.1501  117.8684    8.5000   55.5000   88.9600   -0.9791 
9166.5000    9.1550    2.5699    0.1000    0.0000    0.0001    0.0000    1.0000    4.0000    0.9978    0.1498  115.7830    8.5000   55.5000   87.4700   -1.0244 
9167.0000    8.9120    2.6504    0.1000    0.0000    0.0001    0.0000    1.0000    4.0000    0.9667    0.1451  112.7071    8.5000   55.5000   87.1300   -0.9236 
9167.5000    8.8660    2.7456    0.1000    0.0000    0.0001    0.0000    1.0000    4.0000    0.9228    0.1385  108.3540    8.5000   55.5000   86.0400   -0.9289 
9168.0000    8.9010    2.7711    0.1000    0.0000    0.0001    0.0000    1.0000    4.0000    0.8634    0.1296  102.4759    8.5000   55.5000   84.3300   -1.1712 
9168.5000    8.8580    2.7695    0.1000    0.0000    0.0001    0.0000    1.0000    4.0000    0.8290    0.1245   99.0742    8.5000   55.5000   83.4600   -1.2254 
9169.0000    8.8120    2.7646    0.1000    0.0000    0.0001    0.0000    1.0000    4.0000    0.8207    0.1232   98.2531    8.5000   55.5000   78.7700   -1.5947 
9169.5000    8.7680    2.7596    0.1000    0.0000    0.0001    0.0000    1.0000    4.0000    0.8184    0.1229   98.0185    8.5000   55.5000   85.7516   -2.0910 
9170.0000    8.7770    2.7555    0.1000    0.0000    0.0001    0.0000    1.0000    4.0000    0.8124    0.1220   97.4320    8.5000   55.5000   85.0980   -2.2862 
9170.5000    8.7530    2.7506    0.1000    0.0000    0.0001    0.0000    1.0000    4.0000    0.7957    0.1195   95.7768    8.5000   55.5000   85.0980   -2.1735 
9171.0000    8.6880    2.7308    0.1000    0.0000    0.0001    0.0000    1.0000    4.0000    0.7899    0.1186   95.2033    8.5000   55.5000   85.0980   -2.0848 
9171.5000    8.6630    2.7228    0.1000    0.0000    0.0001    0.0000    1.0000    4.0000    0.8199    0.1231   98.1749    8.5000   55.5000   84.6100   -2.3340 
9172.0000    8.6710    2.7176    0.1000    0.0000    0.0001    0.0000    1.0000    4.0000    0.8572    0.1287  101.8633    8.5000   55.5000   85.3300   -2.3953 
9172.5000    8.6590    2.7126    0.1000    0.0000    0.0001    0.0000    1.0000    4.0000    0.8539    0.1282  101.5375    8.5000   55.5000   86.2700   -2.1076 
9173.0000    8.6060    2.7076    0.1000    0.0000    0.0001    0.0000    1.0000    4.0000    0.8323    0.1249   99.4000    8.5000   55.5000   84.9900   -1.9188 
9173.5000    8.6500    2.6861    0.1000    0.0000    0.0001    0.0000    1.0000    4.0000    0.8336    0.1251   99.5304    8.5000   55.5000   85.2900   -1.8831 
9174.0000    8.6560    2.6865    0.1000    0.0000    0.0001    0.0000    1.0000    4.0000    0.8455    0.1269  100.7034    8.5000   55.5000   84.9900   -1.9314 
9174.5000    8.6020    2.7271    0.1000    0.0000    0.0001    0.0000    1.0000    4.0000    0.8540    0.1282  101.5506    8.5000   55.5000   85.2400   -1.9707 
